{
  "metadata": {
    "id": "production_seed",
    "name": "YBS production seed dataset",
    "sourceUrl": "https://github.com/ZeusOwner/YBS-GUIDE",
    "version": "1.0.0",
    "lastUpdated": "2026-06-03T00:00:00.000",
    "confidence": 0.55,
    "routeCount": 139
  },
  "routes": [
    {
      "id": "ybs-1",
      "routeNumber": "YBS-1",
      "nameEn": "Insein - Sule Pagoda",
      "nameMm": "အင်းစိန် - ဆူးလေဘုရား / အင်းစိန် မှ ဆူးလေဘုရား",
      "startStopEn": "Insein",
      "startStopMm": "အင်းစိန်",
      "endStopEn": "Sule Pagoda",
      "endStopMm": "ဆူးလေဘုရား",
      "farePrice": 300,
      "isAirCon": false,
      "color": "#1B5E20",
      "routeType": "regular",
      "operatingHours": {
        "firstBus": "05:30",
        "lastBus": "21:00"
      },
      "frequency": "every 15-20 min",
      "stops": [
        {
          "id": "stop-insein",
          "nameEn": "Insein",
          "nameMm": "အင်းစိန်",
          "latitude": 16.8904,
          "longitude": 96.0999,
          "landmark": "Insein",
          "isTerminal": true,
          "sequence": 1,
          "routes": [
            "ybs-1",
            "ybs-15",
            "ybs-22",
            "ybs-36",
            "ybs-44",
            "ybs-56",
            "ybs-59",
            "ybs-63",
            "ybs-81",
            "ybs-103",
            "ybs-125"
          ],
          "landmarkEn": "Insein",
          "landmarkMm": "အင်းစိန်"
        },
        {
          "id": "stop-bayintnaung",
          "nameEn": "Bayintnaung",
          "nameMm": "ဘုရင့်နောင်",
          "latitude": 16.8672,
          "longitude": 96.1075,
          "landmark": "Bayintnaung",
          "isTerminal": false,
          "sequence": 2,
          "routes": [
            "ybs-1",
            "ybs-36",
            "ybs-88"
          ],
          "landmarkEn": "Bayintnaung",
          "landmarkMm": "ဘုရင့်နောင်"
        },
        {
          "id": "stop-hlaing",
          "nameEn": "Hlaing",
          "nameMm": "လှိုင်",
          "latitude": 16.8456,
          "longitude": 96.1287,
          "landmark": "Hlaing",
          "isTerminal": false,
          "sequence": 3,
          "routes": [
            "ybs-1",
            "ybs-2",
            "ybs-19",
            "ybs-23",
            "ybs-28",
            "ybs-36",
            "ybs-45",
            "ybs-50",
            "ybs-63",
            "ybs-67",
            "ybs-89",
            "ybs-94",
            "ybs-111",
            "ybs-116"
          ],
          "landmarkEn": "Hlaing",
          "landmarkMm": "လှိုင်"
        },
        {
          "id": "stop-myaynigone",
          "nameEn": "Myaynigone",
          "nameMm": "Myaynigone",
          "latitude": 16.8015,
          "longitude": 96.1435,
          "landmark": "Myaynigone",
          "isTerminal": false,
          "sequence": 4,
          "routes": [
            "ybs-1",
            "ybs-12",
            "ybs-37"
          ],
          "landmarkEn": "Myaynigone",
          "landmarkMm": "Myaynigone"
        },
        {
          "id": "stop-sule-pagoda",
          "nameEn": "Sule Pagoda",
          "nameMm": "ဆူးလေဘုရား",
          "latitude": 16.7742,
          "longitude": 96.1588,
          "landmark": "Sule Pagoda",
          "isTerminal": true,
          "sequence": 5,
          "routes": [
            "ybs-1"
          ],
          "landmarkEn": "Sule Pagoda",
          "landmarkMm": "ဆူးလေဘုရား"
        },
        {
          "id": "stop-insein-thiri-mingalar",
          "nameEn": "Insein Road / Thiri Mingalar",
          "nameMm": "အင်းစိန် လမ်း / Thiri Mingalar",
          "latitude": 16.8655,
          "longitude": 96.1155,
          "landmark": "Thiri Mingalar Market",
          "landmarkEn": "Thiri Mingalar Market",
          "landmarkMm": "Thiri Mingalar ဈေး",
          "isTerminal": false,
          "sequence": 6,
          "routes": [
            "ybs-1",
            "ybs-36",
            "ybs-63"
          ]
        },
        {
          "id": "stop-pyay-hledan-junction",
          "nameEn": "Pyay Road / Hledan Junction",
          "nameMm": "ပြည်လမ်း / လည်းတန်း လမ်းဆုံ",
          "latitude": 16.859,
          "longitude": 96.131,
          "landmark": "Hledan Junction",
          "landmarkEn": "Hledan Junction",
          "landmarkMm": "လည်းတန်း လမ်းဆုံ",
          "isTerminal": false,
          "sequence": 7,
          "routes": [
            "ybs-1",
            "ybs-36",
            "ybs-63"
          ]
        },
        {
          "id": "stop-hledan-market",
          "nameEn": "Hledan Market",
          "nameMm": "လည်းတန်း ဈေး",
          "latitude": 16.8563,
          "longitude": 96.1275,
          "landmark": "Hledan Market",
          "landmarkEn": "Hledan Market",
          "landmarkMm": "လည်းတန်း ဈေး",
          "isTerminal": false,
          "sequence": 8,
          "routes": [
            "ybs-1",
            "ybs-36",
            "ybs-63"
          ]
        },
        {
          "id": "stop-fmi-centre-pyay-road",
          "nameEn": "FMI Centre / Pyay Road",
          "nameMm": "FMI စင်တာ / ပြည်လမ်း",
          "latitude": 16.853,
          "longitude": 96.1352,
          "landmark": "FMI Centre",
          "landmarkEn": "FMI Centre",
          "landmarkMm": "FMI စင်တာ",
          "isTerminal": false,
          "sequence": 9,
          "routes": [
            "ybs-1",
            "ybs-36"
          ]
        },
        {
          "id": "stop-junction-city-pyay-road",
          "nameEn": "Junction City / Pyay Road",
          "nameMm": "လမ်းဆုံ City / ပြည်လမ်း",
          "latitude": 16.8482,
          "longitude": 96.139,
          "landmark": "Junction City",
          "landmarkEn": "Junction City",
          "landmarkMm": "လမ်းဆုံ City",
          "isTerminal": false,
          "sequence": 10,
          "routes": [
            "ybs-1",
            "ybs-36"
          ]
        },
        {
          "id": "stop-sule-pagoda-downtown",
          "nameEn": "Sule Pagoda",
          "nameMm": "ဆူးလေဘုရား",
          "latitude": 16.7771,
          "longitude": 96.1601,
          "landmark": "Sule Pagoda",
          "landmarkEn": "Sule Pagoda",
          "landmarkMm": "ဆူးလေဘုရား",
          "isTerminal": false,
          "sequence": 11,
          "routes": [
            "ybs-1",
            "ybs-6",
            "ybs-37",
            "ybs-46",
            "ybs-53",
            "ybs-65",
            "ybs-69"
          ]
        },
        {
          "id": "stop-maha-bandoola-park",
          "nameEn": "Maha Bandoola Park",
          "nameMm": "မဟာဗန္ဓုလ ပန်းခြံ",
          "latitude": 16.7802,
          "longitude": 96.16,
          "landmark": "Maha Bandoola Park",
          "landmarkEn": "Maha Bandoola Park",
          "landmarkMm": "မဟာဗန္ဓုလ ပန်းခြံ",
          "isTerminal": false,
          "sequence": 12,
          "routes": [
            "ybs-1",
            "ybs-9",
            "ybs-38",
            "ybs-46",
            "ybs-65"
          ]
        },
        {
          "id": "stop-pansodan-street",
          "nameEn": "Pansodan Street",
          "nameMm": "ပန်းဆိုးတန်း လမ်း",
          "latitude": 16.78,
          "longitude": 96.1562,
          "landmark": "Pansodan Street",
          "landmarkEn": "Pansodan Street",
          "landmarkMm": "ပန်းဆိုးတန်း လမ်း",
          "isTerminal": false,
          "sequence": 13,
          "routes": [
            "ybs-1",
            "ybs-46",
            "ybs-53",
            "ybs-65"
          ]
        }
      ],
      "schedule": {
        "forward": {
          "departureTimes": [
            "05:30",
            "05:50",
            "06:10",
            "06:30",
            "06:50"
          ]
        },
        "return": {
          "departureTimes": [
            "05:45",
            "06:05",
            "06:25",
            "06:45",
            "07:05"
          ]
        }
      },
      "routePath": [
        [
          16.8904,
          96.0999
        ],
        [
          16.8672,
          96.1075
        ],
        [
          16.8456,
          96.1287
        ],
        [
          16.8015,
          96.1435
        ],
        [
          16.7742,
          96.1588
        ]
      ],
      "dataConfidence": "verified"
    },
    {
      "id": "ybs-2",
      "routeNumber": "YBS-2",
      "nameEn": "Hlaing - Botahtaung",
      "nameMm": "လှိုင် - ဗိုလ်တထောင် / လှိုင် မှ ဗိုလ်တထောင်",
      "startStopEn": "Hlaing",
      "startStopMm": "လှိုင်",
      "endStopEn": "Botahtaung",
      "endStopMm": "ဗိုလ်တထောင်",
      "farePrice": 300,
      "isAirCon": false,
      "color": "#0D47A1",
      "routeType": "regular",
      "operatingHours": {
        "firstBus": "05:30",
        "lastBus": "21:00"
      },
      "frequency": "every 15-20 min",
      "stops": [
        {
          "id": "stop-osm-4846853161",
          "nameEn": "Aung Mingalar Highway",
          "nameMm": "Aung Mingalar Highway",
          "latitude": 16.9265076,
          "longitude": 96.1560826,
          "isTerminal": true,
          "sequence": 1,
          "source": "osm"
        },
        {
          "id": "stop-osm-4846863321",
          "nameEn": "Dhamma Yone Bus Stop",
          "nameMm": "Dhamma Yone Bus Stop",
          "latitude": 16.9241994,
          "longitude": 96.1578636,
          "isTerminal": false,
          "sequence": 2,
          "source": "osm"
        },
        {
          "id": "stop-osm-4912261719",
          "nameEn": "Chauk Gwayt",
          "nameMm": "Chauk Gwayt",
          "latitude": 16.9184634,
          "longitude": 96.1629994,
          "isTerminal": false,
          "sequence": 3,
          "source": "osm"
        },
        {
          "id": "stop-osm-4863210479",
          "nameEn": "Ayar",
          "nameMm": "Ayar",
          "latitude": 16.9173331,
          "longitude": 96.163503,
          "isTerminal": false,
          "sequence": 4,
          "source": "osm"
        },
        {
          "id": "stop-osm-4863204423",
          "nameEn": "Kan Thar Yar Bus Stop",
          "nameMm": "Kan Thar Yar Bus Stop",
          "latitude": 16.9132787,
          "longitude": 96.1651927,
          "isTerminal": false,
          "sequence": 5,
          "source": "osm"
        },
        {
          "id": "stop-osm-4855085156",
          "nameEn": "Za Myint Zwal Zayy ( Za Myint Zwal Market ) Bus Stop",
          "nameMm": "Za Myint Zwal Zayy ( Za Myint Zwal Market ) Bus Stop",
          "latitude": 16.9118941,
          "longitude": 96.1621697,
          "isTerminal": false,
          "sequence": 6,
          "source": "osm"
        },
        {
          "id": "stop-osm-4855088662",
          "nameEn": "Yoke Shin Yone ( Cinema ) Bus Stop",
          "nameMm": "Yoke Shin Yone ( Cinema ) Bus Stop",
          "latitude": 16.9112553,
          "longitude": 96.1601195,
          "isTerminal": false,
          "sequence": 7,
          "source": "osm"
        },
        {
          "id": "stop-osm-4855091592",
          "nameEn": "Nwe Thar Gi Bus Stop",
          "nameMm": "Nwe Thar Gi Bus Stop",
          "latitude": 16.9099357,
          "longitude": 96.1567842,
          "isTerminal": false,
          "sequence": 8,
          "source": "osm"
        },
        {
          "id": "stop-osm-4855091791",
          "nameEn": "Mya Yadanar Bus Stop",
          "nameMm": "Mya Yadanar Bus Stop",
          "latitude": 16.9081755,
          "longitude": 96.15524,
          "isTerminal": false,
          "sequence": 9,
          "source": "osm"
        },
        {
          "id": "stop-osm-4855099740",
          "nameEn": "Yone Bus Stop",
          "nameMm": "Yone Bus Stop",
          "latitude": 16.9062105,
          "longitude": 96.1546375,
          "isTerminal": false,
          "sequence": 10,
          "source": "osm"
        },
        {
          "id": "stop-osm-4855110225",
          "nameEn": "Okkar Bus Stop",
          "nameMm": "Okkar Bus Stop",
          "latitude": 16.9030584,
          "longitude": 96.1544886,
          "isTerminal": false,
          "sequence": 11,
          "source": "osm"
        },
        {
          "id": "stop-osm-4855111119",
          "nameEn": "May Dar Wii Bus Stop",
          "nameMm": "May Dar Wii Bus Stop",
          "latitude": 16.8999024,
          "longitude": 96.1547059,
          "isTerminal": false,
          "sequence": 12,
          "source": "osm"
        },
        {
          "id": "stop-osm-4855119284",
          "nameEn": "Yone Thit Bus Stop",
          "nameMm": "Yone Thit Bus Stop",
          "latitude": 16.8959472,
          "longitude": 96.1557097,
          "isTerminal": false,
          "sequence": 13,
          "source": "osm"
        },
        {
          "id": "stop-osm-4848835075",
          "nameEn": "Gate Haung Bus Stop",
          "nameMm": "Gate Haung Bus Stop",
          "latitude": 16.8937416,
          "longitude": 96.1575797,
          "isTerminal": false,
          "sequence": 14,
          "source": "osm"
        },
        {
          "id": "stop-osm-4848832094",
          "nameEn": "Gandar Yone Bus Stop",
          "nameMm": "Gandar Yone Bus Stop",
          "latitude": 16.8865601,
          "longitude": 96.1640368,
          "isTerminal": false,
          "sequence": 15,
          "source": "osm"
        },
        {
          "id": "stop-osm-4848822294",
          "nameEn": "Khay Mar Bus Stop",
          "nameMm": "Khay Mar Bus Stop",
          "latitude": 16.8857828,
          "longitude": 96.1677856,
          "isTerminal": false,
          "sequence": 16,
          "source": "osm"
        },
        {
          "id": "stop-osm-4848824352",
          "nameEn": "Phyo Sabal Bus Stop",
          "nameMm": "Phyo Sabal Bus Stop",
          "latitude": 16.8875022,
          "longitude": 96.1711195,
          "isTerminal": false,
          "sequence": 17,
          "source": "osm"
        },
        {
          "id": "stop-osm-4848817231",
          "nameEn": "Kyaung Gwayt Bus Stop",
          "nameMm": "Kyaung Gwayt Bus Stop",
          "latitude": 16.8893514,
          "longitude": 96.17469,
          "isTerminal": false,
          "sequence": 18,
          "source": "osm"
        },
        {
          "id": "stop-osm-4848809921",
          "nameEn": "Kyann Mar Yayy Bus Stop",
          "nameMm": "Kyann Mar Yayy Bus Stop",
          "latitude": 16.8914132,
          "longitude": 96.1786925,
          "isTerminal": false,
          "sequence": 19,
          "source": "osm"
        },
        {
          "id": "stop-osm-4848799166",
          "nameEn": "Layy Sett Layy Lann Sone ( 44th Junction ) Bus Stop",
          "nameMm": "Layy Sett Layy Lann Sone ( 44th Junction ) Bus Stop",
          "latitude": 16.892969,
          "longitude": 96.1818612,
          "isTerminal": false,
          "sequence": 20,
          "source": "osm"
        },
        {
          "id": "stop-osm-4848793924",
          "nameEn": "Kyaung Layy Shayt Bus Stop",
          "nameMm": "Kyaung Layy Shayt Bus Stop",
          "latitude": 16.8936225,
          "longitude": 96.1830612,
          "isTerminal": false,
          "sequence": 21,
          "source": "osm"
        },
        {
          "id": "stop-osm-4848788019",
          "nameEn": "Ba Nyarr Dala Bus Stop",
          "nameMm": "Ba Nyarr Dala Bus Stop",
          "latitude": 16.8947119,
          "longitude": 96.1851784,
          "isTerminal": false,
          "sequence": 22,
          "source": "osm"
        },
        {
          "id": "stop-osm-4848784178",
          "nameEn": "Bha Htoo Zayy ( Bha Htoo Market ) Bus Stop",
          "nameMm": "Bha Htoo Zayy ( Bha Htoo Market ) Bus Stop",
          "latitude": 16.8956759,
          "longitude": 96.1870428,
          "isTerminal": false,
          "sequence": 23,
          "source": "osm"
        },
        {
          "id": "stop-osm-4848779989",
          "nameEn": "Gyarr Bus Stop",
          "nameMm": "Gyarr Bus Stop",
          "latitude": 16.8968673,
          "longitude": 96.189326,
          "isTerminal": false,
          "sequence": 24,
          "source": "osm"
        },
        {
          "id": "stop-osm-4863358806",
          "nameEn": "(46) Lann Sone",
          "nameMm": "(46) Lann Sone",
          "latitude": 16.8984806,
          "longitude": 96.1924553,
          "isTerminal": false,
          "sequence": 25,
          "source": "osm"
        },
        {
          "id": "stop-osm-4863135969",
          "nameEn": "Layy Satt Ngarr ( 45 ) Bus Stop",
          "nameMm": "Layy Satt Ngarr ( 45 ) Bus Stop",
          "latitude": 16.8952533,
          "longitude": 96.1943292,
          "isTerminal": false,
          "sequence": 26,
          "source": "osm"
        },
        {
          "id": "stop-osm-4868975950",
          "nameEn": "7/8 Lann Sone",
          "nameMm": "7/8 Lann Sone",
          "latitude": 16.8922538,
          "longitude": 96.1959829,
          "isTerminal": false,
          "sequence": 27,
          "source": "osm"
        },
        {
          "id": "stop-osm-4861337471",
          "nameEn": "Yone Shay",
          "nameMm": "Yone Shay",
          "latitude": 16.8875751,
          "longitude": 96.1985932,
          "isTerminal": false,
          "sequence": 28,
          "source": "osm"
        },
        {
          "id": "stop-osm-4840941815",
          "nameEn": "Kone Pa Day Thar Bus Stop",
          "nameMm": "Kone Pa Day Thar Bus Stop",
          "latitude": 16.8842093,
          "longitude": 96.2004756,
          "isTerminal": false,
          "sequence": 29,
          "source": "osm"
        },
        {
          "id": "stop-osm-4836223403",
          "nameEn": "Swann In Bus Stop",
          "nameMm": "Swann In Bus Stop",
          "latitude": 16.8808042,
          "longitude": 96.2023514,
          "isTerminal": false,
          "sequence": 30,
          "source": "osm"
        },
        {
          "id": "stop-osm-4600235450",
          "nameEn": "Ma Wa Ta Bus Stop",
          "nameMm": "Ma Wa Ta Bus Stop",
          "latitude": 16.87673,
          "longitude": 96.2045091,
          "isTerminal": false,
          "sequence": 31,
          "source": "osm"
        },
        {
          "id": "stop-osm-4836223407",
          "nameEn": "Arr Ka Sarr Kwin Bus Stop",
          "nameMm": "Arr Ka Sarr Kwin Bus Stop",
          "latitude": 16.8725701,
          "longitude": 96.2063291,
          "isTerminal": false,
          "sequence": 32,
          "source": "osm"
        },
        {
          "id": "stop-osm-4836223410",
          "nameEn": "Ka Pa Ya Bus Stop",
          "nameMm": "Ka Pa Ya Bus Stop",
          "latitude": 16.8699488,
          "longitude": 96.207548,
          "isTerminal": false,
          "sequence": 33,
          "source": "osm"
        },
        {
          "id": "stop-osm-4836223411",
          "nameEn": "Ta Darr Htake Bus Stop",
          "nameMm": "Ta Darr Htake Bus Stop",
          "latitude": 16.8661046,
          "longitude": 96.2089808,
          "isTerminal": false,
          "sequence": 34,
          "source": "osm"
        },
        {
          "id": "stop-osm-4836223413",
          "nameEn": "Myot Oo Zay Di Bus Stop",
          "nameMm": "Myot Oo Zay Di Bus Stop",
          "latitude": 16.8621069,
          "longitude": 96.212786,
          "isTerminal": false,
          "sequence": 35,
          "source": "osm"
        },
        {
          "id": "stop-osm-4857474169",
          "nameEn": "Taung/ Myauk Lann Sone",
          "nameMm": "Taung/ Myauk Lann Sone",
          "latitude": 16.8629485,
          "longitude": 96.2164266,
          "isTerminal": false,
          "sequence": 36,
          "source": "osm"
        },
        {
          "id": "stop-osm-4861328054",
          "nameEn": "Myot Oo Kyaung Bus Stop",
          "nameMm": "Myot Oo Kyaung Bus Stop",
          "latitude": 16.8617426,
          "longitude": 96.2301945,
          "isTerminal": false,
          "sequence": 37,
          "source": "osm"
        },
        {
          "id": "stop-osm-4861292070",
          "nameEn": "Kwunn Yar Saing Bus Stop",
          "nameMm": "Kwunn Yar Saing Bus Stop",
          "latitude": 16.8601643,
          "longitude": 96.2321428,
          "isTerminal": false,
          "sequence": 38,
          "source": "osm"
        },
        {
          "id": "stop-osm-4863376920",
          "nameEn": "Satt Ship Gwayt Bus Stop",
          "nameMm": "Satt Ship Gwayt Bus Stop",
          "latitude": 16.8580205,
          "longitude": 96.2345842,
          "isTerminal": false,
          "sequence": 39,
          "source": "osm"
        },
        {
          "id": "stop-osm-4861286054",
          "nameEn": "Ta Darr Htake Bus Stop",
          "nameMm": "Ta Darr Htake Bus Stop",
          "latitude": 16.8559857,
          "longitude": 96.2373942,
          "isTerminal": false,
          "sequence": 40,
          "source": "osm"
        },
        {
          "id": "stop-osm-4861244051",
          "nameEn": "Phone Gyi Kyaung Gwayt Bus Stop",
          "nameMm": "Phone Gyi Kyaung Gwayt Bus Stop",
          "latitude": 16.8540797,
          "longitude": 96.2398291,
          "isTerminal": false,
          "sequence": 41,
          "source": "osm"
        },
        {
          "id": "stop-osm-4841285051",
          "nameEn": "Car Layy Gate Bus Stop",
          "nameMm": "Car Layy Gate Bus Stop",
          "latitude": 16.8517241,
          "longitude": 96.2379462,
          "isTerminal": false,
          "sequence": 42,
          "source": "osm"
        },
        {
          "id": "stop-osm-4841280543",
          "nameEn": "20 Zay",
          "nameMm": "20 Zay",
          "latitude": 16.8496882,
          "longitude": 96.2361497,
          "isTerminal": false,
          "sequence": 43,
          "source": "osm"
        },
        {
          "id": "stop-osm-4841268548",
          "nameEn": "Kone Tike ( Department Store ) Bus Stop",
          "nameMm": "Kone Tike ( Department Store ) Bus Stop",
          "latitude": 16.8482771,
          "longitude": 96.2349837,
          "isTerminal": false,
          "sequence": 44,
          "source": "osm"
        },
        {
          "id": "stop-osm-4841269356",
          "nameEn": "Thitsar Bus Stop",
          "nameMm": "Thitsar Bus Stop",
          "latitude": 16.8458941,
          "longitude": 96.2329112,
          "isTerminal": false,
          "sequence": 45,
          "source": "osm"
        },
        {
          "id": "stop-osm-4841267482",
          "nameEn": "Kyar Kan ( Lily Pond ) Bus Stop",
          "nameMm": "Kyar Kan ( Lily Pond ) Bus Stop",
          "latitude": 16.8439576,
          "longitude": 96.2313842,
          "isTerminal": false,
          "sequence": 46,
          "source": "osm"
        },
        {
          "id": "stop-osm-4841261282",
          "nameEn": "Sett Hmu Zone Hnit ( Industrial Zone 2 ) Bus Stop",
          "nameMm": "Sett Hmu Zone Hnit ( Industrial Zone 2 ) Bus Stop",
          "latitude": 16.841943,
          "longitude": 96.2297588,
          "isTerminal": false,
          "sequence": 47,
          "source": "osm"
        },
        {
          "id": "stop-osm-4861169954",
          "nameEn": "Sett Hmu Zone Zayy ( Industrial Zone Market ) Bus Stop",
          "nameMm": "Sett Hmu Zone Zayy ( Industrial Zone Market ) Bus Stop",
          "latitude": 16.8383926,
          "longitude": 96.2326208,
          "isTerminal": false,
          "sequence": 48,
          "source": "osm"
        },
        {
          "id": "stop-osm-4861158663",
          "nameEn": "Ayeyarwaddy Lann Htake Bus Stop",
          "nameMm": "Ayeyarwaddy Lann Htake Bus Stop",
          "latitude": 16.8373249,
          "longitude": 96.233176,
          "isTerminal": false,
          "sequence": 49,
          "source": "osm"
        },
        {
          "id": "stop-osm-4861150796",
          "nameEn": "Min Kon Zay",
          "nameMm": "Min Kon Zay",
          "latitude": 16.8343859,
          "longitude": 96.2340556,
          "isTerminal": false,
          "sequence": 50,
          "source": "osm"
        },
        {
          "id": "stop-osm-4861148804",
          "nameEn": "Sittaung Lann Htaik Bus Stop",
          "nameMm": "Sittaung Lann Htaik Bus Stop",
          "latitude": 16.8316446,
          "longitude": 96.2343184,
          "isTerminal": false,
          "sequence": 51,
          "source": "osm"
        },
        {
          "id": "stop-osm-4861146121",
          "nameEn": "Saut Lote Yayy Bus Stop",
          "nameMm": "Saut Lote Yayy Bus Stop",
          "latitude": 16.82866,
          "longitude": 96.2403031,
          "isTerminal": false,
          "sequence": 52,
          "source": "osm"
        },
        {
          "id": "stop-osm-4861129994",
          "nameEn": "Yuzana Awine Bus Stop",
          "nameMm": "Yuzana Awine Bus Stop",
          "latitude": 16.8211376,
          "longitude": 96.2661808,
          "isTerminal": false,
          "sequence": 53,
          "source": "osm"
        },
        {
          "id": "stop-osm-4861119445",
          "nameEn": "11 st BUS STOP",
          "nameMm": "11 st BUS STOP",
          "latitude": 16.8235378,
          "longitude": 96.2679135,
          "isTerminal": true,
          "sequence": 54,
          "source": "osm"
        }
      ],
      "schedule": {
        "forward": {
          "departureTimes": [
            "05:30",
            "05:50",
            "06:10",
            "06:30",
            "06:50"
            "06:00",
            "06:30"
          ]
        },
        "return": {
          "departureTimes": [
            "05:45",
            "06:05",
            "06:25",
            "06:45",
            "07:05"
            "06:15",
            "06:45"
          ]
        }
      },
      "routePath": [
        [
          16.8456,
          96.1287
        ],
        [
          16.8296,
          96.1307
        ],
        [
          16.778,
          96.145
        ],
        [
          16.7742,
          96.1588
        ],
        [
          16.7708,
          96.1715
        ]
      ],
      "dataConfidence": "estimated"
    },
    {
      "id": "ybs-3",
      "routeNumber": "YBS-3",
      "nameEn": "Thaketa - Sanchaung",
      "nameMm": "သာကေတ - စမ်းချောင်း / သာကေတ မှ စမ်းချောင်း",
      "startStopEn": "Thaketa",
      "startStopMm": "သာကေတ",
      "endStopEn": "Sanchaung",
      "endStopMm": "စမ်းချောင်း",
      "farePrice": 300,
      "isAirCon": false,
      "color": "#33691E",
          96.2145
        ],
        [
          16.8821,
          96.2049
        ]
      ],
      "dataQuality": "terminal_only"
    },
    {
      "id": "ybs-5",
      "routeNumber": "YBS-5",
      "nameEn": "Pazundaung to Latha",
      "nameMm": "ပုဇွန်တောင် - လသာ / ပုဇွန်တောင် မှ လသာ",
      "startStopEn": "Pazundaung",
      "startStopMm": "ပုဇွန်တောင်",
      "endStopEn": "Latha",
      "endStopMm": "လသာ",
      "farePrice": 300,
      "isAirCon": false,
      "color": "#006064",
      "routeType": "regular",
      "operatingHours": {
        "firstBus": "05:30",
        "lastBus": "21:00"
      },
      "frequency": "every 15-20 min",
      "stops": [
        {
          "id": "stop-osm-4840889977",
          "nameEn": "Lann Ngarr Sal ( 50th Street )",
          "nameMm": "Lann Ngarr Sal ( 50th Street )",
          "latitude": 16.7714135,
          "longitude": 96.1712821,
          "isTerminal": true,
          "sequence": 1,
          "source": "osm"
        },
        {
          "id": "stop-osm-4858992556",
          "nameEn": "Kyal Ngarr Pwint ( 5 Stars ) Bus Stop",
          "nameMm": "Kyal Ngarr Pwint ( 5 Stars ) Bus Stop",
          "latitude": 16.7722507,
          "longitude": 96.1671353,
          "isTerminal": false,
          "sequence": 2,
          "source": "osm"
        },
        {
          "id": "stop-osm-4841095274",
          "nameEn": "Saint Paul (St. Paul) Bus Stop",
          "nameMm": "Saint Paul (St. Paul) Bus Stop",
          "latitude": 16.7777615,
          "longitude": 96.1673828,
          "isTerminal": false,
          "sequence": 3,
          "source": "osm"
        },
        {
          "id": "stop-osm-4994222568",
          "nameEn": "Thein Phyu Zay",
          "nameMm": "Thein Phyu Zay",
          "latitude": 16.7842243,
          "longitude": 96.1676637,
          "isTerminal": false,
          "sequence": 4,
          "source": "osm"
        },
        {
          "id": "stop-osm-5526628624",
          "nameEn": "Thein Phyu Sar Tike (သိမ္ျဖဴစာတိုက္)",
          "nameMm": "Thein Phyu Sar Tike (သိမ္ျဖဴစာတိုက္)",
          "latitude": 16.7875204,
          "longitude": 96.167836,
          "isTerminal": false,
          "sequence": 5,
          "source": "osm"
        },
        {
          "id": "stop-osm-4783770522",
          "nameEn": "Masalar Sat",
          "nameMm": "Masalar Sat",
          "latitude": 16.7904525,
          "longitude": 96.1698502,
          "isTerminal": false,
          "sequence": 6,
          "source": "osm"
        },
        {
          "id": "stop-osm-5087599016",
          "nameEn": "Mingalar Zay/Layy Lan",
          "nameMm": "Mingalar Zay/Layy Lan",
          "latitude": 16.79151,
          "longitude": 96.1724666,
          "isTerminal": false,
          "sequence": 7,
          "source": "osm"
        },
        {
          "id": "stop-osm-4841116743",
          "nameEn": "Yuzana Plaza",
          "nameMm": "Yuzana Plaza",
          "latitude": 16.794286,
          "longitude": 96.1756548,
          "isTerminal": false,
          "sequence": 8,
          "source": "osm"
        },
        {
          "id": "stop-osm-4841124972",
          "nameEn": "Aung Mingalar Lann ( Aung Mingalar Street ) Bus Stop",
          "nameMm": "Aung Mingalar Lann ( Aung Mingalar Street ) Bus Stop",
          "latitude": 16.796482,
          "longitude": 96.1768395,
          "isTerminal": false,
          "sequence": 9,
          "source": "osm"
        },
        {
          "id": "stop-osm-4841134479",
          "nameEn": "Byine Yay Ooh Sin Lann Bus Stop",
          "nameMm": "Byine Yay Ooh Sin Lann Bus Stop",
          "latitude": 16.8067057,
          "longitude": 96.1721756,
          "isTerminal": false,
          "sequence": 10,
          "source": "osm"
        },
        {
          "id": "stop-osm-5593805742",
          "nameEn": "Kyaung Shayt Bus Stop",
          "nameMm": "Kyaung Shayt Bus Stop",
          "latitude": 16.8154018,
          "longitude": 96.1726434,
          "isTerminal": false,
          "sequence": 11,
          "source": "osm"
        },
        {
          "id": "stop-osm-4836565822",
          "nameEn": "Lann Sone ( Junction ) Bus Stop",
          "nameMm": "Lann Sone ( Junction ) Bus Stop",
          "latitude": 16.8189493,
          "longitude": 96.1725256,
          "isTerminal": false,
          "sequence": 12,
          "source": "osm"
        },
        {
          "id": "stop-osm-4841167961",
          "nameEn": "Than Lann Bus Stop",
          "nameMm": "Than Lann Bus Stop",
          "latitude": 16.819812,
          "longitude": 96.1781197,
          "isTerminal": false,
          "sequence": 13,
          "source": "osm"
        },
        {
          "id": "stop-osm-4836304905",
          "nameEn": "A Thinn Tike",
          "nameMm": "A Thinn Tike",
          "latitude": 16.823019,
          "longitude": 96.1834315,
          "isTerminal": false,
          "sequence": 14,
          "source": "osm"
        },
        {
          "id": "stop-osm-4836284805",
          "nameEn": "Phayar Lann ( Pagoda Road )",
          "nameMm": "Phayar Lann ( Pagoda Road )",
          "latitude": 16.8307316,
          "longitude": 96.1931521,
          "isTerminal": false,
          "sequence": 15,
          "source": "osm"
        },
        {
          "id": "stop-osm-4836276158",
          "nameEn": "BOC Bus Stop",
          "nameMm": "BOC Bus Stop",
          "latitude": 16.8336962,
          "longitude": 96.1960397,
          "isTerminal": false,
          "sequence": 16,
          "source": "osm"
        },
        {
          "id": "stop-osm-4836256586",
          "nameEn": "Kala Zu",
          "nameMm": "Kala Zu",
          "latitude": 16.8349529,
          "longitude": 96.1973999,
          "isTerminal": false,
          "sequence": 17,
          "source": "osm"
        },
        {
          "id": "stop-osm-4836249271",
          "nameEn": "Bawa Myint Bus Stop",
          "nameMm": "Bawa Myint Bus Stop",
          "latitude": 16.8371275,
          "longitude": 96.1996758,
          "isTerminal": false,
          "sequence": 18,
          "source": "osm"
        },
        {
          "id": "stop-osm-4836240980",
          "nameEn": "Myittar Shwe Yi ( Metta Shwe Yee ) Bus Stop",
          "nameMm": "Myittar Shwe Yi ( Metta Shwe Yee ) Bus Stop",
          "latitude": 16.8386357,
          "longitude": 96.2012362,
          "isTerminal": false,
          "sequence": 19,
          "source": "osm"
        },
        {
          "id": "stop-osm-4836224222",
          "nameEn": "San Pya Zayy",
          "nameMm": "San Pya Zayy",
          "latitude": 16.8419988,
          "longitude": 96.204705,
          "isTerminal": false,
          "sequence": 20,
          "source": "osm"
        },
        {
          "id": "stop-osm-4836223419",
          "nameEn": "Car Gyi Gate Bus Stop",
          "nameMm": "Car Gyi Gate Bus Stop",
          "latitude": 16.8474036,
          "longitude": 96.2090914,
          "isTerminal": false,
          "sequence": 21,
          "source": "osm"
        },
        {
          "id": "stop-osm-4857424572",
          "nameEn": "TADARPHYU",
          "nameMm": "TADARPHYU",
          "latitude": 16.8575514,
          "longitude": 96.2124632,
          "isTerminal": false,
          "sequence": 22,
          "source": "osm"
        },
        {
          "id": "stop-osm-4841249327",
          "nameEn": "Taung/ Myauk Lann Sone",
          "nameMm": "Taung/ Myauk Lann Sone",
          "latitude": 16.8586513,
          "longitude": 96.2144775,
          "isTerminal": false,
          "sequence": 23,
          "source": "osm"
        },
        {
          "id": "stop-osm-5591469444",
          "nameEn": "Than Lann Bus Stop",
          "nameMm": "Than Lann Bus Stop",
          "latitude": 16.8547573,
          "longitude": 96.2148082,
          "isTerminal": false,
          "sequence": 24,
          "source": "osm"
        },
        {
          "id": "stop-osm-4841253956",
          "nameEn": "Pann Chan (Park) Bus Stop",
          "nameMm": "Pann Chan (Park) Bus Stop",
          "latitude": 16.851396,
          "longitude": 96.2184937,
          "isTerminal": false,
          "sequence": 25,
          "source": "osm"
        },
        {
          "id": "stop-osm-4841257240",
          "nameEn": "Yauk Kaw",
          "nameMm": "Yauk Kaw",
          "latitude": 16.848335,
          "longitude": 96.2221916,
          "isTerminal": false,
          "sequence": 26,
          "source": "osm"
        },
        {
          "id": "stop-osm-4841257012",
          "nameEn": "Thit Saing Gwayt",
          "nameMm": "Thit Saing Gwayt",
          "latitude": 16.8471886,
          "longitude": 96.2234753,
          "isTerminal": false,
          "sequence": 27,
          "source": "osm"
        },
        {
          "id": "stop-osm-4863464672",
          "nameEn": "Kone Pa Day Thar Bus Stop",
          "nameMm": "Kone Pa Day Thar Bus Stop",
          "latitude": 16.8497854,
          "longitude": 96.2275002,
          "isTerminal": false,
          "sequence": 28,
          "source": "osm"
        },
        {
          "id": "stop-osm-4863439471",
          "nameEn": "Gate Haung Bus Stop",
          "nameMm": "Gate Haung Bus Stop",
          "latitude": 16.8523247,
          "longitude": 96.229669,
          "isTerminal": false,
          "sequence": 29,
          "source": "osm"
        },
        {
          "id": "stop-osm-4863428784",
          "nameEn": "Kyaung Shayt Bus Stop",
          "nameMm": "Kyaung Shayt Bus Stop",
          "latitude": 16.8543496,
          "longitude": 96.2314359,
          "isTerminal": false,
          "sequence": 30,
          "source": "osm"
        },
        {
          "id": "stop-osm-4863415895",
          "nameEn": "Kyann Mar Yayy Bus Stop",
          "nameMm": "Kyann Mar Yayy Bus Stop",
          "latitude": 16.8561538,
          "longitude": 96.2330002,
          "isTerminal": false,
          "sequence": 31,
          "source": "osm"
        },
        {
          "id": "stop-osm-4863376920",
          "nameEn": "Satt Ship Gwayt Bus Stop",
          "nameMm": "Satt Ship Gwayt Bus Stop",
          "latitude": 16.8580205,
          "longitude": 96.2345842,
          "isTerminal": false,
          "sequence": 32,
          "source": "osm"
        },
        {
          "id": "stop-osm-4861286054",
          "nameEn": "Ta Darr Htake Bus Stop",
          "nameMm": "Ta Darr Htake Bus Stop",
          "latitude": 16.8559857,
          "longitude": 96.2373942,
          "isTerminal": false,
          "sequence": 33,
          "source": "osm"
        },
        {
          "id": "stop-osm-4863371052",
          "nameEn": "A Wai Yar Bus Stop",
          "nameMm": "A Wai Yar Bus Stop",
          "latitude": 16.8504947,
          "longitude": 96.2442726,
          "isTerminal": false,
          "sequence": 34,
          "source": "osm"
        },
        {
          "id": "stop-osm-4863367078",
          "nameEn": "Ayar Wun Bus Stop",
          "nameMm": "Ayar Wun Bus Stop",
          "latitude": 16.8491909,
          "longitude": 96.2459421,
          "isTerminal": false,
          "sequence": 35,
          "source": "osm"
        },
        {
          "id": "stop-osm-4856957745",
          "nameEn": "Thein Kyaung Bus Stop",
          "nameMm": "Thein Kyaung Bus Stop",
          "latitude": 16.8386542,
          "longitude": 96.2439042,
          "isTerminal": false,
          "sequence": 36,
          "source": "osm"
        },
        {
          "id": "stop-osm-4863342931",
          "nameEn": "Yadanar Lann ( Yadanar Street ) Bus Stop",
          "nameMm": "Yadanar Lann ( Yadanar Street ) Bus Stop",
          "latitude": 16.836538,
          "longitude": 96.249348,
          "isTerminal": false,
          "sequence": 37,
          "source": "osm"
        },
        {
          "id": "stop-osm-4863344221",
          "nameEn": "Mya Nandar Bus Stop",
          "nameMm": "Mya Nandar Bus Stop",
          "latitude": 16.8351515,
          "longitude": 96.2546186,
          "isTerminal": false,
          "sequence": 38,
          "source": "osm"
        },
        {
          "id": "stop-osm-4863331609",
          "nameEn": "Ma Wa Ta Yone Shayt / Oh Eain Bus Stop",
          "nameMm": "Ma Wa Ta Yone Shayt / Oh Eain Bus Stop",
          "latitude": 16.8324194,
          "longitude": 96.2648594,
          "isTerminal": false,
          "sequence": 39,
          "source": "osm"
        },
        {
          "id": "stop-osm-4863322671",
          "nameEn": "Moat Oo ( Yuzana Oo Yin ( Yuzana Garden ) ) Bus Stop",
          "nameMm": "Moat Oo ( Yuzana Oo Yin ( Yuzana Garden ) ) Bus Stop",
          "latitude": 16.8313721,
          "longitude": 96.2703684,
          "isTerminal": true,
          "sequence": 40,
          "source": "osm"
      "frequency": "every 20-30 min",
      "stops": [
        {
          "id": "stop-pazundaung",
          "nameEn": "Pazundaung",
          "nameMm": "ပုဇွန်တောင်",
          "latitude": 16.7925,
          "longitude": 96.1744,
          "landmark": "Pazundaung",
          "isTerminal": true,
          "sequence": 1,
          "routes": [
            "ybs-5",
            "ybs-14",
            "ybs-27",
            "ybs-37",
            "ybs-49",
            "ybs-63",
            "ybs-71",
            "ybs-88",
            "ybs-109",
            "ybs-115",
            "ybs-124",
            "ybs-188"
          ],
          "landmarkEn": "Pazundaung",
          "landmarkMm": "ပုဇွန်တောင်"
        },
        {
          "id": "stop-latha",
          "nameEn": "Latha",
          "nameMm": "လသာ",
          "latitude": 16.7881,
          "longitude": 96.1502,
          "landmark": "Latha",
          "isTerminal": true,
          "sequence": 2,
          "routes": [
            "ybs-5",
            "ybs-27",
            "ybs-28",
            "ybs-49",
            "ybs-50",
            "ybs-71",
            "ybs-94",
            "ybs-115",
            "ybs-116"
          ],
          "landmarkEn": "Latha",
          "landmarkMm": "လသာ"
        }
      ],
      "schedule": {
        "forward": {
          "departureTimes": [
            "05:30",
            "05:50",
            "06:10",
            "06:30",
            "06:50"
            "06:00",
            "06:30"
          ]
        },
        "return": {
          "departureTimes": [
            "05:45",
            "06:05",
            "06:25",
            "06:45",
            "07:05"
            "06:15",
            "06:45"
          ]
        }
      },
      "routePath": [
        [
          16.7804,
          96.2119
        ],
        [
          16.8076,
          96.1327
        ]
      ],
      "dataConfidence": "estimated"
    },
    {
      "id": "ybs-4",
      "routeNumber": "YBS-4",
      "nameEn": "Thingangyun to North Okkalapa",
      "nameMm": "သင်္ဃန်းကျွန်း - မြောက်ဥက္ကလာပ / သင်္ဃန်းကျွန်း မှ မြောက်ဥက္ကလာပ",
      "startStopEn": "Thingangyun",
      "startStopMm": "သင်္ဃန်းကျွန်း",
      "endStopEn": "North Okkalapa",
      "endStopMm": "မြောက်ဥက္ကလာပ",
      "farePrice": 300,
      "isAirCon": false,
      "color": "#4A148C",
          16.7925,
          96.1744
        ],
        [
          16.7881,
          96.1502
        ]
      ],
      "dataQuality": "terminal_only"
    },
    {
      "id": "ybs-6",
      "routeNumber": "YBS-6",
      "nameEn": "North Okkalapa - Sule",
      "nameMm": "မြောက်ဥက္ကလာပ - ဆူးလေ / မြောက်ဥက္ကလာပ မှ ဆူးလေ",
      "startStopEn": "North Okkalapa",
      "startStopMm": "မြောက်ဥက္ကလာပ",
      "endStopEn": "Sule",
      "endStopMm": "ဆူးလေ",
      "farePrice": 300,
      "isAirCon": false,
      "color": "#880E4F",
      "routeType": "regular",
      "operatingHours": {
        "firstBus": "05:30",
        "lastBus": "21:00"
      },
      "frequency": "every 20-30 min",
      "stops": [
        {
          "id": "stop-thingangyun",
          "nameEn": "Thingangyun",
          "nameMm": "သင်္ဃန်းကျွန်း",
          "latitude": 16.8456,
          "longitude": 96.2145,
          "landmark": "Thingangyun",
          "isTerminal": true,
          "sequence": 1,
          "routes": [
            "ybs-4",
            "ybs-9",
            "ybs-23",
            "ybs-26",
            "ybs-45",
            "ybs-48",
            "ybs-67",
            "ybs-70",
            "ybs-89",
            "ybs-92",
            "ybs-111",
            "ybs-114"
          ],
          "landmarkEn": "Thingangyun",
          "landmarkMm": "သင်္ဃန်းကျွန်း"
        },
        {
          "id": "stop-north-okkalapa",
          "nameEn": "North Okkalapa",
          "nameMm": "မြောက်ဥက္ကလာပ",
          "latitude": 16.8821,
          "longitude": 96.2049,
          "landmark": "North Okkalapa",
          "isTerminal": true,
          "sequence": 2,
      "frequency": "every 15-20 min",
      "stops": [
        {
          "id": "stop-north-okkalapa",
          "nameEn": "North Okkalapa",
          "nameMm": "မြောက်ဥက္ကလာပ",
          "latitude": 16.9054,
          "longitude": 96.1632,
          "landmark": "North Okkalapa",
          "isTerminal": true,
          "sequence": 1,
          "routes": [
            "ybs-4",
            "ybs-6",
            "ybs-25",
            "ybs-26",
            "ybs-48",
            "ybs-53",
            "ybs-55",
            "ybs-70",
            "ybs-77",
            "ybs-92",
            "ybs-99",
            "ybs-106",
            "ybs-114",
            "ybs-121"
          ],
          "landmarkEn": "North Okkalapa",
          "landmarkMm": "မြောက်ဥက္ကလာပ"
        }
      ],
      "schedule": {
        "forward": {
          "departureTimes": [
            "05:30",
            "06:00",
            "06:30"
          ]
        },
        "return": {
          "departureTimes": [
            "05:45",
            "06:15",
            "06:45"
          ]
        }
      },
      "routePath": [
        [
          16.8456,
          96.2145
        ],
        [
          16.8821,
          96.2049
        ]
      ],
      "dataQuality": "terminal_only",
      "dataConfidence": "terminalOnly"
    },
    {
      "id": "ybs-5",
      "routeNumber": "YBS-5",
      "nameEn": "Pazundaung to Latha",
      "nameMm": "ပုဇွန်တောင် - လသာ / ပုဇွန်တောင် မှ လသာ",
      "startStopEn": "Pazundaung",
      "startStopMm": "ပုဇွန်တောင်",
      "endStopEn": "Latha",
      "endStopMm": "လသာ",
      "farePrice": 300,
      "isAirCon": false,
      "color": "#006064",
      "routeType": "regular",
      "operatingHours": {
        "firstBus": "05:30",
        "lastBus": "21:00"
      },
      "frequency": "every 20-30 min",
      "stops": [
        {
          "id": "stop-pazundaung",
          "nameEn": "Pazundaung",
          "nameMm": "ပုဇွန်တောင်",
          "latitude": 16.7925,
          "longitude": 96.1744,
          "landmark": "Pazundaung",
          "isTerminal": true,
          "sequence": 1,
          "routes": [
            "ybs-5",
            "ybs-14",
            "ybs-27",
            "ybs-37",
            "ybs-49",
            "ybs-63",
            "ybs-71",
            "ybs-88",
            "ybs-109",
            "ybs-115",
            "ybs-124",
            "ybs-188"
          ],
          "landmarkEn": "Pazundaung",
          "landmarkMm": "ပုဇွန်တောင်"
        },
        {
          "id": "stop-latha",
          "nameEn": "Latha",
          "nameMm": "လသာ",
          "latitude": 16.7881,
          "longitude": 96.1502,
          "landmark": "Latha",
          "isTerminal": true,
          "sequence": 2,
          "routes": [
            "ybs-5",
            "ybs-27",
            "ybs-28",
            "ybs-49",
            "ybs-50",
            "ybs-71",
            "ybs-94",
            "ybs-115",
            "ybs-116"
          ],
          "landmarkEn": "Latha",
          "landmarkMm": "လသာ"
        }
      ],
      "schedule": {
        "forward": {
          "departureTimes": [
            "05:30",
            "06:00",
            "06:30"
          ]
        },
        "return": {
          "departureTimes": [
            "05:45",
            "06:15",
            "06:45"
          ]
        }
      },
      "routePath": [
        [
          16.7925,
          96.1744
        ],
        [
          16.7881,
          96.1502
        ]
      ],
      "dataQuality": "terminal_only",
      "dataConfidence": "terminalOnly"
    },
    {
      "id": "ybs-6",
      "routeNumber": "YBS-6",
      "nameEn": "North Okkalapa - Sule",
      "nameMm": "မြောက်ဥက္ကလာပ - ဆူးလေ / မြောက်ဥက္ကလာပ မှ ဆူးလေ",
      "startStopEn": "North Okkalapa",
      "startStopMm": "မြောက်ဥက္ကလာပ",
      "endStopEn": "Sule",
      "endStopMm": "ဆူးလေ",
      "farePrice": 300,
      "isAirCon": false,
      "color": "#880E4F",
      "routeType": "regular",
      "operatingHours": {
        "firstBus": "05:30",
        "lastBus": "21:00"
      },
      "frequency": "every 15-20 min",
      "stops": [
        {
          "id": "stop-osm-4841306880",
          "nameEn": "(70/71) Zay",
          "nameMm": "(70/71) Zay",
          "latitude": 16.8705553,
          "longitude": 96.2546931,
          "isTerminal": true,
          "sequence": 1,
          "source": "osm"
        },
        {
          "id": "stop-osm-4841302374",
          "nameEn": "Kargyi Gate",
          "nameMm": "Kargyi Gate",
          "latitude": 16.8671964,
          "longitude": 96.2517177,
          "isTerminal": false,
          "sequence": 2,
          "source": "osm"
        },
        {
          "id": "stop-osm-4841297541",
          "nameEn": "Betel Shop",
          "nameMm": "Betel Shop",
          "latitude": 16.8636459,
          "longitude": 96.2485426,
          "isTerminal": false,
          "sequence": 3,
          "source": "osm"
        },
        {
          "id": "stop-osm-4841295523",
          "nameEn": "56",
          "nameMm": "56",
          "latitude": 16.8612712,
          "longitude": 96.2464345,
          "isTerminal": false,
          "sequence": 4,
          "source": "osm"
        },
        {
          "id": "stop-osm-4841292887",
          "nameEn": "(54) Thama",
          "nameMm": "(54) Thama",
          "latitude": 16.8597959,
          "longitude": 96.2451156,
          "isTerminal": false,
          "sequence": 5,
          "source": "osm"
        },
        {
          "id": "stop-osm-4841288915",
          "nameEn": "Phone Gyi Kyaung Gwayt Bus Stop",
          "nameMm": "Phone Gyi Kyaung Gwayt Bus Stop",
          "latitude": 16.8542193,
          "longitude": 96.2401164,
          "isTerminal": false,
          "sequence": 6,
          "source": "osm"
        },
        {
          "id": "stop-osm-4911855687",
          "nameEn": "Phone Gyi Kyaung Gwayt Bus Stop",
          "nameMm": "Phone Gyi Kyaung Gwayt Bus Stop",
          "latitude": 16.8541166,
          "longitude": 96.2398857,
          "isTerminal": false,
          "sequence": 7,
          "source": "osm"
        },
        {
          "id": "stop-osm-4861288149",
          "nameEn": "Ta Darr Htake Bus Stop",
          "nameMm": "Ta Darr Htake Bus Stop",
          "latitude": 16.8560439,
          "longitude": 96.2374671,
          "isTerminal": false,
          "sequence": 8,
          "source": "osm"
        },
        {
          "id": "stop-osm-4863372960",
          "nameEn": "Satt Ship Gwayt Bus Stop",
          "nameMm": "Satt Ship Gwayt Bus Stop",
          "latitude": 16.8580402,
          "longitude": 96.234523,
          "isTerminal": false,
          "sequence": 9,
          "source": "osm"
        },
        {
          "id": "stop-osm-4863405521",
          "nameEn": "Kyann Mar Yayy Bus Stop",
          "nameMm": "Kyann Mar Yayy Bus Stop",
          "latitude": 16.8563795,
          "longitude": 96.2330815,
          "isTerminal": false,
          "sequence": 10,
          "source": "osm"
        },
        {
          "id": "stop-osm-4863416736",
          "nameEn": "Kyaung Shayt Bus Stop",
          "nameMm": "Kyaung Shayt Bus Stop",
          "latitude": 16.8543926,
          "longitude": 96.2313522,
          "isTerminal": false,
          "sequence": 11,
          "source": "osm"
        },
        {
          "id": "stop-osm-4863439470",
          "nameEn": "Gate Haung Bus Stop",
          "nameMm": "Gate Haung Bus Stop",
          "latitude": 16.8523717,
          "longitude": 96.2296096,
          "isTerminal": false,
          "sequence": 12,
          "source": "osm"
        },
        {
          "id": "stop-osm-4863464671",
          "nameEn": "Kone Pa Day Thar Bus Stop",
          "nameMm": "Kone Pa Day Thar Bus Stop",
          "latitude": 16.8500137,
          "longitude": 96.227595,
          "isTerminal": false,
          "sequence": 13,
          "source": "osm"
        },
        {
          "id": "stop-osm-4877478631",
          "nameEn": "Thit Saing Gwayt",
          "nameMm": "Thit Saing Gwayt",
          "latitude": 16.84753,
          "longitude": 96.2231976,
          "isTerminal": false,
          "sequence": 14,
          "source": "osm"
        },
        {
          "id": "stop-osm-4841324756",
          "nameEn": "Yauk Kaw",
          "nameMm": "Yauk Kaw",
          "latitude": 16.8483531,
          "longitude": 96.2222259,
          "isTerminal": false,
          "sequence": 15,
          "source": "osm"
        },
        {
          "id": "stop-osm-4841325161",
          "nameEn": "Pann Chan (Park)Bus Stop",
          "nameMm": "Pann Chan (Park)Bus Stop",
          "latitude": 16.8514514,
          "longitude": 96.2186056,
          "isTerminal": false,
          "sequence": 16,
          "source": "osm"
        },
        {
          "id": "stop-osm-4863560380",
          "nameEn": "Thu Khu Ma Bus Stop",
          "nameMm": "Thu Khu Ma Bus Stop",
          "latitude": 16.8551472,
          "longitude": 96.2161188,
          "isTerminal": false,
          "sequence": 17,
          "source": "osm"
        },
        {
          "id": "stop-osm-4846853205",
          "nameEn": "Taung/ Myauk Lann Sone",
          "nameMm": "Taung/ Myauk Lann Sone",
          "latitude": 16.8586916,
          "longitude": 96.2146547,
          "isTerminal": false,
          "sequence": 18,
          "source": "osm"
        },
        {
          "id": "stop-osm-4857424571",
          "nameEn": "TADARPHYU",
          "nameMm": "TADARPHYU",
          "latitude": 16.8575807,
          "longitude": 96.212421,
          "isTerminal": false,
          "sequence": 19,
          "source": "osm"
        },
        {
          "id": "stop-osm-4836223420",
          "nameEn": "Car Gyi Gate Bus Stop",
          "nameMm": "Car Gyi Gate Bus Stop",
          "latitude": 16.8474004,
          "longitude": 96.2089896,
          "isTerminal": false,
          "sequence": 20,
          "source": "osm"
        },
        {
          "id": "stop-osm-4905607306",
          "nameEn": "San Pya Zayy",
          "nameMm": "San Pya Zayy",
          "latitude": 16.8432251,
          "longitude": 96.2041281,
          "isTerminal": false,
          "sequence": 21,
          "source": "osm"
        },
        {
          "id": "stop-osm-4840893901",
          "nameEn": "License Yone",
          "nameMm": "License Yone",
          "latitude": 16.8452555,
          "longitude": 96.2018331,
          "isTerminal": false,
          "sequence": 22,
          "source": "osm"
        },
        {
          "id": "stop-osm-4840893903",
          "nameEn": "Se Man Kein",
          "nameMm": "Se Man Kein",
          "latitude": 16.8482509,
          "longitude": 96.1968914,
          "isTerminal": false,
          "sequence": 23,
          "source": "osm"
        },
        {
          "id": "stop-osm-4840901540",
          "nameEn": "31 GATE",
          "nameMm": "31 GATE",
          "latitude": 16.8492873,
          "longitude": 96.1929069,
          "isTerminal": false,
          "sequence": 24,
          "source": "osm"
        },
        {
          "id": "stop-osm-4840901595",
          "nameEn": "Moe Swe",
          "nameMm": "Moe Swe",
          "latitude": 16.8501901,
          "longitude": 96.1896027,
          "isTerminal": false,
          "sequence": 25,
          "source": "osm"
        },
        {
          "id": "stop-osm-4840908174",
          "nameEn": "Kyae Tamar",
          "nameMm": "Kyae Tamar",
          "latitude": 16.8511182,
          "longitude": 96.1876586,
          "isTerminal": false,
          "sequence": 26,
          "source": "osm"
        },
        {
          "id": "stop-osm-4840908176",
          "nameEn": "South Okkalapa Pagoda",
          "nameMm": "South Okkalapa Pagoda",
          "latitude": 16.852818,
          "longitude": 96.1854457,
          "isTerminal": false,
          "sequence": 27,
          "source": "osm"
        },
        {
          "id": "stop-osm-4840920624",
          "nameEn": "Myin Thar Zay",
          "nameMm": "Myin Thar Zay",
          "latitude": 16.8568663,
          "longitude": 96.181911,
          "isTerminal": false,
          "sequence": 28,
          "source": "osm"
        },
        {
          "id": "stop-osm-4840920625",
          "nameEn": "Bay Li",
          "nameMm": "Bay Li",
          "latitude": 16.8598373,
          "longitude": 96.1789878,
          "isTerminal": false,
          "sequence": 29,
          "source": "osm"
        },
        {
          "id": "stop-osm-4859405693",
          "nameEn": "Bay Li Bus Stop",
          "nameMm": "Bay Li Bus Stop",
          "latitude": 16.8609093,
          "longitude": 96.1770566,
          "isTerminal": false,
          "sequence": 30,
          "source": "osm"
        },
        {
          "id": "stop-osm-4859228525",
          "nameEn": "Pinnya Bus Stop",
          "nameMm": "Pinnya Bus Stop",
          "latitude": 16.8595154,
          "longitude": 96.1760796,
          "isTerminal": false,
          "sequence": 31,
          "source": "osm"
        },
        {
          "id": "stop-osm-4859222224",
          "nameEn": "Kay Tu Marlar Gwayt Bus Stop",
          "nameMm": "Kay Tu Marlar Gwayt Bus Stop",
          "latitude": 16.8562665,
          "longitude": 96.17213,
          "isTerminal": false,
          "sequence": 32,
          "source": "osm"
        },
        {
          "id": "stop-osm-4859179142",
          "nameEn": "Parami Nyaung Bin Bus Stop",
          "nameMm": "Parami Nyaung Bin Bus Stop",
          "latitude": 16.8542689,
          "longitude": 96.1684213,
          "isTerminal": false,
          "sequence": 33,
          "source": "osm"
        },
        {
          "id": "stop-osm-4859131483",
          "nameEn": "Myint Zuu Lann",
          "nameMm": "Myint Zuu Lann",
          "latitude": 16.8509605,
          "longitude": 96.1622964,
          "isTerminal": false,
          "sequence": 34,
          "source": "osm"
        },
        {
          "id": "stop-osm-4847104006",
          "nameEn": "Chaw Twinn Gone",
          "nameMm": "Chaw Twinn Gone",
          "latitude": 16.8507355,
          "longitude": 96.1577586,
          "isTerminal": false,
          "sequence": 35,
          "source": "osm"
        },
        {
          "id": "stop-osm-4847073203",
          "nameEn": "Kabar Aye Phayar",
          "nameMm": "Kabar Aye Phayar",
          "latitude": 16.8568556,
          "longitude": 96.1566286,
          "isTerminal": false,
          "sequence": 36,
          "source": "osm"
        },
        {
          "id": "stop-osm-4847085724",
          "nameEn": "Sar Tike",
          "nameMm": "Sar Tike",
          "latitude": 16.8626821,
          "longitude": 96.1553294,
          "isTerminal": false,
          "sequence": 37,
          "source": "osm"
        },
        {
          "id": "stop-osm-2936710529",
          "nameEn": "Nawaday",
          "nameMm": "Nawaday",
          "latitude": 16.8668944,
          "longitude": 96.1526771,
          "isTerminal": false,
          "sequence": 38,
          "source": "osm"
        },
        {
          "id": "stop-osm-2936708729",
          "nameEn": "Myaing Hay Wun",
          "nameMm": "Myaing Hay Wun",
          "latitude": 16.8667792,
          "longitude": 96.1434413,
          "isTerminal": false,
          "sequence": 39,
          "source": "osm"
        },
        {
          "id": "stop-osm-4841150067",
          "nameEn": "Eight Miles",
          "nameMm": "Eight Miles",
          "latitude": 16.8674891,
          "longitude": 96.1417575,
          "isTerminal": false,
          "sequence": 40,
          "source": "osm"
        },
        {
          "id": "stop-osm-4841163598",
          "nameEn": "Maharsi",
          "nameMm": "Maharsi",
          "latitude": 16.8725377,
          "longitude": 96.1399148,
          "isTerminal": false,
          "sequence": 41,
          "source": "osm"
        },
        {
          "id": "stop-osm-4841173639",
          "nameEn": "A1",
          "nameMm": "A1",
          "latitude": 16.8776799,
          "longitude": 96.1376725,
          "isTerminal": false,
          "sequence": 42,
          "source": "osm"
        },
        {
          "id": "stop-osm-4841182138",
          "nameEn": "၉ မိုင္ Koe Mile ( 9 Miles )",
          "nameMm": "၉ မိုင္ Koe Mile ( 9 Miles )",
          "latitude": 16.8805447,
          "longitude": 96.1363348,
          "isTerminal": false,
          "sequence": 43,
          "source": "osm"
        },
        {
          "id": "stop-osm-4841193932",
          "nameEn": "Koe Mile Khwal ( 9.5 Miles )",
          "nameMm": "Koe Mile Khwal ( 9.5 Miles )",
          "latitude": 16.8838295,
          "longitude": 96.1359205,
          "isTerminal": false,
          "sequence": 44,
          "source": "osm"
        },
        {
          "id": "stop-osm-4841196604",
          "nameEn": "10 Mile Kone",
          "nameMm": "10 Mile Kone",
          "latitude": 16.8887079,
          "longitude": 96.1292356,
          "isTerminal": false,
          "sequence": 45,
          "source": "osm"
        },
        {
          "id": "stop-osm-4841206399",
          "nameEn": "A Way Pyay ( Highway )",
          "nameMm": "A Way Pyay ( Highway )",
          "latitude": 16.888668,
          "longitude": 96.1230271,
          "isTerminal": false,
          "sequence": 46,
          "source": "osm"
        },
        {
          "id": "stop-osm-4896578296",
          "nameEn": "Arlain Ngar Sint",
          "nameMm": "Arlain Ngar Sint",
          "latitude": 16.8916271,
          "longitude": 96.1165733,
          "isTerminal": false,
          "sequence": 47,
          "source": "osm"
        },
        {
          "id": "stop-osm-4896578294",
          "nameEn": "Workshop",
          "nameMm": "Workshop",
          "latitude": 16.8912392,
          "longitude": 96.1146744,
          "isTerminal": false,
          "sequence": 48,
          "source": "osm"
        },
        {
          "id": "stop-osm-4896578292",
          "nameEn": "Oakkyin Wa",
          "nameMm": "Oakkyin Wa",
          "latitude": 16.8906848,
          "longitude": 96.1114851,
          "isTerminal": false,
          "sequence": 49,
          "source": "osm"
        },
        {
          "id": "stop-osm-5136927922",
          "nameEn": "Insein Pan Chan အင္းစိန္ပန္းျခံ",
          "nameMm": "Insein Pan Chan အင္းစိန္ပန္းျခံ",
          "latitude": 16.8893578,
          "longitude": 96.1097108,
          "isTerminal": false,
          "sequence": 50,
          "source": "osm"
        },
        {
          "id": "stop-osm-4847238712",
          "nameEn": "Insein Pann Chan",
          "nameMm": "Insein Pann Chan",
          "latitude": 16.88868,
          "longitude": 96.1079402,
          "isTerminal": false,
          "sequence": 51,
          "source": "osm"
        },
        {
          "id": "stop-osm-4836101077",
          "nameEn": "Insein Zay",
          "nameMm": "Insein Zay",
          "latitude": 16.8869874,
          "longitude": 96.1024689,
          "isTerminal": false,
          "sequence": 52,
          "source": "osm"
        },
        {
          "id": "stop-osm-4899076299",
          "nameEn": "Pauk Taw Wa Lann Sone ( Pauk Taw Wa Junction ) Bus Stop",
          "nameMm": "Pauk Taw Wa Lann Sone ( Pauk Taw Wa Junction ) Bus Stop",
          "latitude": 16.8851627,
          "longitude": 96.0971188,
          "isTerminal": false,
          "sequence": 53,
          "source": "osm"
        },
        {
          "id": "stop-osm-4836113986",
          "nameEn": "Insein Kannarr Bus Stop",
          "nameMm": "Insein Kannarr Bus Stop",
          "latitude": 16.8835242,
          "longitude": 96.0940048,
          "isTerminal": false,
          "sequence": 54,
          "source": "osm"
        },
        {
          "id": "stop-osm-4836115972",
          "nameEn": "Titt Htake",
          "nameMm": "Titt Htake",
          "latitude": 16.8782294,
          "longitude": 96.0784019,
          "isTerminal": false,
          "sequence": 55,
          "source": "osm"
        },
        {
          "id": "stop-osm-4836118897",
          "nameEn": "Thone Htake",
          "nameMm": "Thone Htake",
          "latitude": 16.8777205,
          "longitude": 96.0750683,
          "isTerminal": false,
          "sequence": 56,
          "source": "osm"
        },
        {
          "id": "stop-osm-4836127939",
          "nameEn": "5 Hte Bus Stop",
          "nameMm": "5 Hte Bus Stop",
          "latitude": 16.8771014,
          "longitude": 96.0712842,
          "isTerminal": false,
          "sequence": 57,
          "source": "osm"
        },
        {
          "id": "stop-osm-4836127941",
          "nameEn": "Yone Shayt",
          "nameMm": "Yone Shayt",
          "latitude": 16.8757727,
          "longitude": 96.0626113,
          "isTerminal": false,
          "sequence": 58,
          "source": "osm"
        },
        {
          "id": "stop-osm-5321369721",
          "nameEn": "Tatarphyu",
          "nameMm": "Tatarphyu",
          "latitude": 16.8750146,
          "longitude": 96.0580364,
          "isTerminal": false,
          "sequence": 59,
          "source": "osm"
        },
        {
          "id": "stop-osm-4836147792",
          "nameEn": "Mee Khwak Zay",
          "nameMm": "Mee Khwak Zay",
          "latitude": 16.8740918,
          "longitude": 96.052007,
          "isTerminal": false,
          "sequence": 60,
          "source": "osm"
        },
        {
          "id": "stop-osm-3266257457",
          "nameEn": "Sanayma",
          "nameMm": "Sanayma",
          "latitude": 16.8724135,
          "longitude": 96.0416039,
          "isTerminal": false,
          "sequence": 61,
          "source": "osm"
        },
        {
          "id": "stop-osm-4836200296",
          "nameEn": "BOC",
          "nameMm": "BOC",
          "latitude": 16.8726492,
          "longitude": 96.037529,
          "isTerminal": false,
          "sequence": 62,
          "source": "osm"
        },
        {
          "id": "stop-osm-4860899724",
          "nameEn": "Tha Ma Kone A Wine",
          "nameMm": "Tha Ma Kone A Wine",
          "latitude": 16.87418,
          "longitude": 96.0337069,
          "isTerminal": false,
          "sequence": 63,
          "source": "osm"
        },
        {
          "id": "stop-osm-4847230618",
          "nameEn": "Dagon Ayeyar Away Pyay (Dagon Ayeyar Highway Bus Station) Bus Stop",
          "nameMm": "Dagon Ayeyar Away Pyay (Dagon Ayeyar Highway Bus Station) Bus Stop",
          "latitude": 16.8780337,
          "longitude": 96.0241164,
          "isTerminal": true,
          "sequence": 64,
          "source": "osm"
        },
        {
          "id": "stop-waizayandar",
          "nameEn": "Waizayandar",
          "nameMm": "ဝေဇယန္တာ",
          "latitude": 16.844,
          "longitude": 96.188,
          "landmark": "Waizayandar",
          "isTerminal": false,
          "sequence": 2,
          "routes": [
            "ybs-6",
            "ybs-69",
            "ybs-138"
          ],
          "landmarkEn": "Waizayandar",
          "landmarkMm": "ဝေဇယန္တာ"
        },
        {
          "id": "stop-yankin",
          "nameEn": "Yankin",
          "nameMm": "ရန်ကင်း",
          "latitude": 16.829,
          "longitude": 96.164,
          "landmark": "Yankin",
          "isTerminal": false,
          "sequence": 3,
          "routes": [
            "ybs-6",
            "ybs-38",
            "ybs-69"
          ],
          "landmarkEn": "Yankin",
          "landmarkMm": "ရန်ကင်း"
        },
        {
          "id": "stop-bahan",
          "nameEn": "Bahan",
          "nameMm": "ဗဟန်း",
          "latitude": 16.807,
          "longitude": 96.157,
          "landmark": "Bahan",
          "isTerminal": false,
          "sequence": 4,
          "routes": [
            "ybs-6",
            "ybs-10",
            "ybs-13",
            "ybs-32",
            "ybs-35",
            "ybs-38",
            "ybs-54",
            "ybs-57",
            "ybs-66",
            "ybs-76",
            "ybs-79",
            "ybs-98",
            "ybs-101",
            "ybs-120",
            "ybs-123"
          ],
          "landmarkEn": "Bahan",
          "landmarkMm": "ဗဟန်း"
        },
        {
          "id": "stop-sule",
          "nameEn": "Sule",
          "nameMm": "ဆူးလေ",
          "latitude": 16.7742,
          "longitude": 96.1588,
          "landmark": "Sule",
          "isTerminal": true,
          "sequence": 5,
          "routes": [
            "ybs-2",
            "ybs-6",
            "ybs-7",
            "ybs-21",
            "ybs-30",
            "ybs-36",
            "ybs-37",
            "ybs-43",
            "ybs-46",
            "ybs-53",
            "ybs-56",
            "ybs-58",
            "ybs-60",
            "ybs-63",
            "ybs-65",
            "ybs-66",
            "ybs-69",
            "ybs-85",
            "ybs-130",
            "ybs-155",
            "ybs-209"
          ],
          "landmarkEn": "Sule",
          "landmarkMm": "ဆူးလေ"
        },
        {
          "id": "stop-waizayandar-parami-junction",
          "nameEn": "Waizayandar / Parami Junction",
          "nameMm": "ဝေဇယန္တာ / ပါရမီ လမ်းဆုံ",
          "latitude": 16.8702,
          "longitude": 96.1953,
          "landmark": "Waizayandar Road",
          "landmarkEn": "Waizayandar Road",
          "landmarkMm": "ဝေဇယန္တာ လမ်း",
          "isTerminal": false,
          "sequence": 6,
          "routes": [
            "ybs-6",
            "ybs-53",
            "ybs-69"
          ]
        },
        {
          "id": "stop-thitsar-road-junction",
          "nameEn": "Thitsar Road Junction",
          "nameMm": "Thitsar လမ်း လမ်းဆုံ",
          "latitude": 16.8661,
          "longitude": 96.1951,
          "landmark": "Thitsar Road",
          "landmarkEn": "Thitsar Road",
          "landmarkMm": "Thitsar လမ်း",
          "isTerminal": false,
          "sequence": 7,
          "routes": [
            "ybs-6",
            "ybs-9",
            "ybs-53",
            "ybs-69"
          ]
        },
        {
          "id": "stop-south-okkalapa-central",
          "nameEn": "South Okkalapa Central Stop",
          "nameMm": "တောင်ဥက္ကလာပ ဗဟို မှတ်တိုင်",
          "latitude": 16.8622,
          "longitude": 96.1965,
          "landmark": "South Okkalapa",
          "landmarkEn": "South Okkalapa",
          "landmarkMm": "တောင်ဥက္ကလာပ",
          "isTerminal": false,
          "sequence": 8,
          "routes": [
            "ybs-6",
            "ybs-9",
            "ybs-69"
          ]
        },
        {
          "id": "stop-nandawon-market",
          "nameEn": "Nandawon Market Stop",
          "nameMm": "Nandawon ဈေး မှတ်တိုင်",
          "latitude": 16.8669,
          "longitude": 96.201,
          "landmark": "Nandawon Market",
          "landmarkEn": "Nandawon Market",
          "landmarkMm": "Nandawon ဈေး",
          "isTerminal": false,
          "sequence": 9,
          "routes": [
            "ybs-6",
            "ybs-69"
          ]
        },
        {
          "id": "stop-shwedagon-north",
          "nameEn": "Shwedagon North Gate",
          "nameMm": "ရွှေတိဂုံ မြောက်ဘက်တံခါး",
          "latitude": 16.8718,
          "longitude": 96.148,
          "landmark": "Shwedagon Pagoda",
          "landmarkEn": "Shwedagon Pagoda",
          "landmarkMm": "ရွှေတိဂုံဘုရား",
          "isTerminal": false,
          "sequence": 10,
          "routes": [
            "ybs-6",
            "ybs-37"
          ]
        },
        {
          "id": "stop-shwedagon-east",
          "nameEn": "Shwedagon East Gate",
          "nameMm": "ရွှေတိဂုံ အရှေ့ဘက်တံခါး",
          "latitude": 16.865,
          "longitude": 96.1534,
          "landmark": "Shwedagon Pagoda",
          "landmarkEn": "Shwedagon Pagoda",
          "landmarkMm": "ရွှေတိဂုံဘုရား",
          "isTerminal": false,
          "sequence": 11,
          "routes": [
            "ybs-6",
            "ybs-37",
            "ybs-38"
          ]
        },
        {
          "id": "stop-university-avenue-bahan",
          "nameEn": "University Avenue / Bahan",
          "nameMm": "တက္ကသိုလ် Avenue / ဗဟန်း",
          "latitude": 16.842,
          "longitude": 96.158,
          "landmark": "University Avenue",
          "landmarkEn": "University Avenue",
          "landmarkMm": "တက္ကသိုလ် Avenue",
          "isTerminal": false,
          "sequence": 12,
          "routes": [
            "ybs-6",
            "ybs-38"
          ]
        },
        {
          "id": "stop-sule-pagoda-downtown",
          "nameEn": "Sule Pagoda",
          "nameMm": "ဆူးလေဘုရား",
          "latitude": 16.7771,
          "longitude": 96.1601,
          "landmark": "Sule Pagoda",
          "landmarkEn": "Sule Pagoda",
          "landmarkMm": "ဆူးလေဘုရား",
          "isTerminal": false,
          "sequence": 13,
          "routes": [
            "ybs-1",
            "ybs-6",
            "ybs-37",
            "ybs-46",
            "ybs-53",
            "ybs-65",
            "ybs-69"
          ]
        }
      ],
      "schedule": {
        "forward": {
          "departureTimes": [
            "05:30",
            "05:50",
            "06:10",
            "06:30",
            "06:50"
          ]
        },
        "return": {
          "departureTimes": [
            "05:45",
            "06:05",
            "06:25",
            "06:45",
            "07:05"
          ]
        }
      },
      "routePath": [
        [
          16.9054,
          96.1632
        ],
        [
          16.844,
          96.188
        ],
        [
          16.829,
          96.164
        ],
        [
          16.807,
          96.157
        ],
        [
          16.7742,
          96.1588
        ]
      ],
      "dataConfidence": "estimated"
      ]
    },
    {
      "id": "ybs-7",
      "routeNumber": "YBS-7",
      "nameEn": "Shwepyithar - Sule",
      "nameMm": "ရွှေပြည်သာ - ဆူးလေ / ရွှေပြည်သာ မှ ဆူးလေ",
      "startStopEn": "Shwepyithar",
      "startStopMm": "ရွှေပြည်သာ",
      "endStopEn": "Sule",
      "endStopMm": "ဆူးလေ",
      "farePrice": 300,
      "isAirCon": false,
      "color": "#1B5E20",
      "routeType": "regular",
      "operatingHours": {
        "firstBus": "05:30",
        "lastBus": "21:00"
      },
      "frequency": "every 15-20 min",
      "stops": [
        {
          "id": "stop-shwepyithar",
          "nameEn": "Shwepyithar",
          "nameMm": "ရွှေပြည်သာ",
          "latitude": 16.9535,
          "longitude": 96.0916,
          "landmark": "Shwepyithar",
          "isTerminal": true,
          "sequence": 1,
          "routes": [
            "ybs-7",
            "ybs-8",
            "ybs-31",
            "ybs-52",
            "ybs-56",
            "ybs-74",
            "ybs-75",
            "ybs-97",
            "ybs-100",
            "ybs-118",
            "ybs-119",
            "ybs-140"
          ],
          "landmarkEn": "Shwepyithar",
          "landmarkMm": "ရွှေပြည်သာ"
        },
        {
          "id": "stop-sule",
          "nameEn": "Sule",
          "nameMm": "ဆူးလေ",
          "latitude": 16.7742,
          "longitude": 96.1588,
          "landmark": "Sule",
          "isTerminal": true,
          "sequence": 2,
          "routes": [
            "ybs-2",
            "ybs-6",
            "ybs-7",
            "ybs-21",
            "ybs-30",
            "ybs-36",
            "ybs-37",
            "ybs-43",
            "ybs-46",
            "ybs-53",
            "ybs-56",
            "ybs-58",
            "ybs-60",
            "ybs-63",
            "ybs-65",
            "ybs-66",
            "ybs-69",
            "ybs-85",
            "ybs-130",
            "ybs-155",
            "ybs-209"
          ],
          "landmarkEn": "Sule",
          "landmarkMm": "ဆူးလေ"
        }
      ],
      "schedule": {
        "forward": {
          "departureTimes": [
            "05:30",
            "05:50",
            "06:10",
            "06:30",
            "06:50"
          ]
        },
        "return": {
          "departureTimes": [
            "05:45",
            "06:05",
            "06:25",
            "06:45",
            "07:05"
          ]
        }
      },
      "routePath": [
        [
          16.9535,
          96.0916
        ],
        [
          16.7742,
          96.1588
        ]
      ],
      "dataConfidence": "terminalOnly"
      ]
    },
    {
      "id": "ybs-8",
      "routeNumber": "YBS-8",
      "nameEn": "Shwepyithar to Lanmadaw",
      "nameMm": "ရွှေပြည်သာ - လမ်းမတော် / ရွှေပြည်သာ မှ လမ်းမတော်",
      "startStopEn": "Shwepyithar",
      "startStopMm": "ရွှေပြည်သာ",
      "endStopEn": "Lanmadaw",
      "endStopMm": "လမ်းမတော်",
      "farePrice": 300,
      "isAirCon": false,
      "color": "#1A237E",
      "routeType": "regular",
      "operatingHours": {
        "firstBus": "05:30",
        "lastBus": "21:00"
      },
      "frequency": "every 20-30 min",
      "stops": [
        {
          "id": "stop-shwepyithar",
          "nameEn": "Shwepyithar",
          "nameMm": "ရွှေပြည်သာ",
          "latitude": 17.0497,
          "longitude": 96.0636,
          "landmark": "Shwepyithar",
          "isTerminal": true,
          "sequence": 1,
          "routes": [
            "ybs-7",
            "ybs-8",
            "ybs-31",
            "ybs-52",
            "ybs-56",
            "ybs-74",
            "ybs-75",
            "ybs-97",
            "ybs-100",
            "ybs-118",
            "ybs-119",
            "ybs-140"
          ],
          "landmarkEn": "Shwepyithar",
          "landmarkMm": "ရွှေပြည်သာ"
        },
        {
          "id": "stop-lanmadaw",
          "nameEn": "Lanmadaw",
          "nameMm": "လမ်းမတော်",
          "latitude": 16.7909,
          "longitude": 96.1397,
          "landmark": "Lanmadaw",
          "isTerminal": true,
          "sequence": 2,
          "routes": [
            "ybs-2",
            "ybs-8",
            "ybs-13",
            "ybs-35",
            "ybs-52",
            "ybs-57",
            "ybs-74",
            "ybs-79",
            "ybs-101",
            "ybs-118",
            "ybs-123",
            "ybs-140"
          ],
          "landmarkEn": "Lanmadaw",
          "landmarkMm": "လမ်းမတော်"
        }
      ],
      "schedule": {
        "forward": {
          "departureTimes": [
            "05:30",
            "06:00",
            "06:30"
          ]
        },
        "return": {
          "departureTimes": [
            "05:45",
            "06:15",
            "06:45"
          ]
        }
      },
      "routePath": [
        [
          17.0497,
          96.0636
        ],
        [
          16.7909,
          96.1397
        ]
      ],
      "dataQuality": "terminal_only",
      "dataConfidence": "terminalOnly"
      "dataQuality": "terminal_only"
    },
    {
      "id": "ybs-9",
      "routeNumber": "YBS-9",
      "nameEn": "Thingangyun - Downtown",
      "nameMm": "သင်္ဃန်းကျွန်း - မြို့လယ် / သင်္ဃန်းကျွန်း မှ မြို့လယ်",
      "startStopEn": "Thingangyun",
      "startStopMm": "သင်္ဃန်းကျွန်း",
      "endStopEn": "Downtown",
      "endStopMm": "မြို့လယ်",
      "farePrice": 300,
      "isAirCon": false,
      "color": "#E65100",
      "routeType": "regular",
      "operatingHours": {
        "firstBus": "05:30",
        "lastBus": "21:00"
      },
      "frequency": "every 15-20 min",
      "stops": [
        {
          "id": "stop-osm-4883206824",
          "nameEn": "Yadanar Lann ( Yadanar Road ) Bus Stop",
          "nameMm": "Yadanar Lann ( Yadanar Road ) Bus Stop",
          "latitude": 16.8177643,
          "longitude": 96.2446284,
          "isTerminal": true,
          "sequence": 1,
          "source": "osm"
        },
        {
          "id": "stop-osm-4883220203",
          "nameEn": "Tine Yin Tharr Nee Pyin Nyar Takkatol ( National Races University of Technology ) Bus Stop",
          "nameMm": "Tine Yin Tharr Nee Pyin Nyar Takkatol ( National Races University of Technology ) Bus Stop",
          "latitude": 16.8193797,
          "longitude": 96.2410763,
          "isTerminal": false,
          "sequence": 2,
          "source": "osm"
        },
        {
          "id": "stop-osm-4856918845",
          "nameEn": "Alo Taw Pyae Bus Stop",
          "nameMm": "Alo Taw Pyae Bus Stop",
          "latitude": 16.8200237,
          "longitude": 96.2379978,
          "isTerminal": false,
          "sequence": 3,
          "source": "osm"
        },
        {
          "id": "stop-osm-4856910320",
          "nameEn": "Thit Sake Bus Stop",
          "nameMm": "Thit Sake Bus Stop",
          "latitude": 16.8155751,
          "longitude": 96.236598,
          "isTerminal": false,
          "sequence": 4,
          "source": "osm"
        },
        {
          "id": "stop-osm-4873648014",
          "nameEn": "Than Lan",
          "nameMm": "Than Lan",
          "latitude": 16.8119813,
          "longitude": 96.232295,
          "isTerminal": false,
          "sequence": 5,
          "source": "osm"
        },
        {
          "id": "stop-osm-4856898278",
          "nameEn": "Phayarr Layy ( Small Pagoda ) Bus Stop",
          "nameMm": "Phayarr Layy ( Small Pagoda ) Bus Stop",
          "latitude": 16.8126489,
          "longitude": 96.2289736,
          "isTerminal": false,
          "sequence": 6,
          "source": "osm"
        },
        {
          "id": "stop-osm-4856893034",
          "nameEn": "Thone Sat Layy Car Gyi Gate ( No. 34 Bus Gate ) Bus Stop",
          "nameMm": "Thone Sat Layy Car Gyi Gate ( No. 34 Bus Gate ) Bus Stop",
          "latitude": 16.8104212,
          "longitude": 96.2245389,
          "isTerminal": false,
          "sequence": 7,
          "source": "osm"
        },
        {
          "id": "stop-osm-4854907877",
          "nameEn": "Sal Zayy ( No. 10 Market ) Bus Stop",
          "nameMm": "Sal Zayy ( No. 10 Market ) Bus Stop",
          "latitude": 16.8082368,
          "longitude": 96.2203011,
          "isTerminal": false,
          "sequence": 8,
          "source": "osm"
        },
        {
          "id": "stop-osm-4840928349",
          "nameEn": "Thaketa A Wine Htake",
          "nameMm": "Thaketa A Wine Htake",
          "latitude": 16.8064862,
          "longitude": 96.2168368,
          "isTerminal": false,
          "sequence": 9,
          "source": "osm"
        },
        {
          "id": "stop-osm-4840922549",
          "nameEn": "(8) Gate",
          "nameMm": "(8) Gate",
          "latitude": 16.8049677,
          "longitude": 96.2138182,
          "isTerminal": false,
          "sequence": 10,
          "source": "osm"
        },
        {
          "id": "stop-osm-4840906981",
          "nameEn": "Myay Ni",
          "nameMm": "Myay Ni",
          "latitude": 16.8036888,
          "longitude": 96.2101959,
          "isTerminal": false,
          "sequence": 11,
          "source": "osm"
        },
        {
          "id": "stop-osm-4849053670",
          "nameEn": "Kyaung Gwayt / Htuu Par Yone Bus Stop",
          "nameMm": "Kyaung Gwayt / Htuu Par Yone Bus Stop",
          "latitude": 16.8038155,
          "longitude": 96.2058875,
          "isTerminal": false,
          "sequence": 12,
          "source": "osm"
        },
        {
          "id": "stop-osm-4849037280",
          "nameEn": "Anawmar Bus Stop",
          "nameMm": "Anawmar Bus Stop",
          "latitude": 16.8039823,
          "longitude": 96.2019643,
          "isTerminal": false,
          "sequence": 13,
          "source": "osm"
        },
        {
          "id": "stop-osm-4841330930",
          "nameEn": "Kyauk Taing",
          "nameMm": "Kyauk Taing",
          "latitude": 16.8042967,
          "longitude": 96.1962838,
          "isTerminal": false,
          "sequence": 14,
          "source": "osm"
        },
        {
          "id": "stop-osm-4841330925",
          "nameEn": "Myay Ni Lann ( Myay Ni Street ) Bus Stop",
          "nameMm": "Myay Ni Lann ( Myay Ni Street ) Bus Stop",
          "latitude": 16.8024829,
          "longitude": 96.1965664,
          "isTerminal": false,
          "sequence": 15,
          "source": "osm"
        },
        {
          "id": "stop-osm-4841330923",
          "nameEn": "Tat Phwat Bus Stop",
          "nameMm": "Tat Phwat Bus Stop",
          "latitude": 16.7996065,
          "longitude": 96.1967673,
          "isTerminal": false,
          "sequence": 16,
          "source": "osm"
        },
        {
          "id": "stop-osm-4841300197",
          "nameEn": "1st Zay Kway",
          "nameMm": "1st Zay Kway",
          "latitude": 16.7961857,
          "longitude": 96.1952103,
          "isTerminal": false,
          "sequence": 17,
          "source": "osm"
        },
        {
          "id": "stop-osm-4841282349",
          "nameEn": "Thaddar Yone Bus Stop",
          "nameMm": "Thaddar Yone Bus Stop",
          "latitude": 16.7936732,
          "longitude": 96.1939122,
          "isTerminal": false,
          "sequence": 18,
          "source": "osm"
        },
        {
          "id": "stop-osm-4883045270",
          "nameEn": "Wak Su Bus Stop",
          "nameMm": "Wak Su Bus Stop",
          "latitude": 16.7894547,
          "longitude": 96.1917579,
          "isTerminal": false,
          "sequence": 19,
          "source": "osm"
        },
        {
          "id": "stop-osm-4869200108",
          "nameEn": "Yan Aung",
          "nameMm": "Yan Aung",
          "latitude": 16.7862054,
          "longitude": 96.1900893,
          "isTerminal": false,
          "sequence": 20,
          "source": "osm"
        },
        {
          "id": "stop-osm-4883074823",
          "nameEn": "Dawbon Thinn Baw Kyinn",
          "nameMm": "Dawbon Thinn Baw Kyinn",
          "latitude": 16.7819863,
          "longitude": 96.1876959,
          "isTerminal": false,
          "sequence": 21,
          "source": "osm"
        },
        {
          "id": "stop-osm-4855449589",
          "nameEn": "Wah So",
          "nameMm": "Wah So",
          "latitude": 16.7826205,
          "longitude": 96.1837496,
          "isTerminal": false,
          "sequence": 22,
          "source": "osm"
        },
        {
          "id": "stop-osm-4849398420",
          "nameEn": "Mingalar Zay",
          "nameMm": "Mingalar Zay",
          "latitude": 16.7918575,
          "longitude": 96.1746486,
          "isTerminal": false,
          "sequence": 23,
          "source": "osm"
        },
        {
          "id": "stop-osm-4841116743",
          "nameEn": "Yuzana Plaza",
          "nameMm": "Yuzana Plaza",
          "latitude": 16.794286,
          "longitude": 96.1756548,
          "isTerminal": false,
          "sequence": 24,
          "source": "osm"
        },
        {
          "id": "stop-osm-4841124972",
          "nameEn": "Aung Mingalar Lann ( Aung Mingalar Street ) Bus Stop",
          "nameMm": "Aung Mingalar Lann ( Aung Mingalar Street ) Bus Stop",
          "latitude": 16.796482,
          "longitude": 96.1768395,
          "isTerminal": false,
          "sequence": 25,
          "source": "osm"
        },
        {
          "id": "stop-osm-4841130026",
          "nameEn": "Thidar Lann ( Thidar Street ) Bus Stop",
          "nameMm": "Thidar Lann ( Thidar Street ) Bus Stop",
          "latitude": 16.7994054,
          "longitude": 96.1760173,
          "isTerminal": false,
          "sequence": 26,
          "source": "osm"
        },
        {
          "id": "stop-osm-4868919395",
          "nameEn": "Kyauk Myaung Zayy ( Kyauk Myaung Market ) Bus Stop",
          "nameMm": "Kyauk Myaung Zayy ( Kyauk Myaung Market ) Bus Stop",
          "latitude": 16.8040407,
          "longitude": 96.1757553,
          "isTerminal": false,
          "sequence": 27,
          "source": "osm"
        },
        {
          "id": "stop-osm-4868902465",
          "nameEn": "Tamwe Zayy ( Tamwe Market ) / Tamwe Bali ( Tamwe Mosque ) Bus Stop",
          "nameMm": "Tamwe Zayy ( Tamwe Market ) / Tamwe Bali ( Tamwe Mosque ) Bus Stop",
          "latitude": 16.8075206,
          "longitude": 96.1762766,
          "isTerminal": false,
          "sequence": 28,
          "source": "osm"
        },
        {
          "id": "stop-osm-4836437058",
          "nameEn": "Tamwe Plaza Bus Stop",
          "nameMm": "Tamwe Plaza Bus Stop",
          "latitude": 16.8094813,
          "longitude": 96.176935,
          "isTerminal": false,
          "sequence": 29,
          "source": "osm"
        },
        {
          "id": "stop-osm-4836437059",
          "nameEn": "Arr Thaw Ka ( Ashoka ) Bus Stop",
          "nameMm": "Arr Thaw Ka ( Ashoka ) Bus Stop",
          "latitude": 16.8072457,
          "longitude": 96.1801125,
          "isTerminal": false,
          "sequence": 30,
          "source": "osm"
        },
        {
          "id": "stop-osm-4836336284",
          "nameEn": "Zayy Layy Bus Stop",
          "nameMm": "Zayy Layy Bus Stop",
          "latitude": 16.8090833,
          "longitude": 96.1835646,
          "isTerminal": false,
          "sequence": 31,
          "source": "osm"
        },
        {
          "id": "stop-osm-4836327040",
          "nameEn": "Kaw Sett Bus Stop",
          "nameMm": "Kaw Sett Bus Stop",
          "latitude": 16.8138389,
          "longitude": 96.1883911,
          "isTerminal": false,
          "sequence": 32,
          "source": "osm"
        },
        {
          "id": "stop-osm-4877837638",
          "nameEn": "Thuwanna Lann Sone",
          "nameMm": "Thuwanna Lann Sone",
          "latitude": 16.8131576,
          "longitude": 96.1917697,
          "isTerminal": true,
          "sequence": 33,
          "source": "osm"
          "id": "stop-thingangyun",
          "nameEn": "Thingangyun",
          "nameMm": "သင်္ဃန်းကျွန်း",
          "latitude": 16.8197,
          "longitude": 96.1972,
          "landmark": "Thingangyun",
          "isTerminal": true,
          "sequence": 1,
          "routes": [
            "ybs-4",
            "ybs-9",
            "ybs-23",
            "ybs-26",
            "ybs-45",
            "ybs-48",
            "ybs-67",
            "ybs-70",
            "ybs-89",
            "ybs-92",
            "ybs-111",
            "ybs-114"
          ],
          "landmarkEn": "Thingangyun",
          "landmarkMm": "သင်္ဃန်းကျွန်း"
        },
        {
          "id": "stop-thuwunna",
          "nameEn": "Thuwunna",
          "nameMm": "Thuwunna",
          "latitude": 16.8014,
          "longitude": 96.1901,
          "landmark": "Thuwunna",
          "isTerminal": false,
          "sequence": 2,
          "routes": [
            "ybs-9",
            "ybs-53",
            "ybs-96",
            "ybs-209"
          ],
          "landmarkEn": "Thuwunna",
          "landmarkMm": "Thuwunna"
        },
        {
          "id": "stop-tamwe",
          "nameEn": "Tamwe",
          "nameMm": "တာမွေ",
          "latitude": 16.8122,
          "longitude": 96.1734,
          "landmark": "Tamwe",
          "isTerminal": false,
          "sequence": 3,
          "routes": [
            "ybs-9",
            "ybs-12",
            "ybs-65",
            "ybs-66"
          ],
          "landmarkEn": "Tamwe",
          "landmarkMm": "တာမွေ"
        },
        {
          "id": "stop-bogyoke-market",
          "nameEn": "Bogyoke Market",
          "nameMm": "Bogyoke ဈေး",
          "latitude": 16.7801,
          "longitude": 96.1553,
          "landmark": "Bogyoke Market",
          "isTerminal": false,
          "sequence": 4,
          "routes": [
            "ybs-9",
            "ybs-33",
            "ybs-38",
            "ybs-66"
          ],
          "landmarkEn": "Bogyoke Market",
          "landmarkMm": "Bogyoke ဈေး"
        },
        {
          "id": "stop-downtown",
          "nameEn": "Downtown",
          "nameMm": "မြို့လယ်",
          "latitude": 16.7791,
          "longitude": 96.1528,
          "landmark": "Downtown",
          "isTerminal": true,
          "sequence": 5,
          "routes": [
            "ybs-9",
            "ybs-11",
            "ybs-24",
            "ybs-33",
            "ybs-51",
            "ybs-53",
            "ybs-65",
            "ybs-93",
            "ybs-127",
            "ybs-202"
          ],
          "landmarkEn": "Downtown",
          "landmarkMm": "မြို့လယ်"
        },
        {
          "id": "stop-thitsar-road-junction",
          "nameEn": "Thitsar Road Junction",
          "nameMm": "Thitsar လမ်း လမ်းဆုံ",
          "latitude": 16.8661,
          "longitude": 96.1951,
          "landmark": "Thitsar Road",
          "landmarkEn": "Thitsar Road",
          "landmarkMm": "Thitsar လမ်း",
          "isTerminal": false,
          "sequence": 6,
          "routes": [
            "ybs-6",
            "ybs-9",
            "ybs-53",
            "ybs-69"
          ]
        },
        {
          "id": "stop-south-okkalapa-central",
          "nameEn": "South Okkalapa Central Stop",
          "nameMm": "တောင်ဥက္ကလာပ ဗဟို မှတ်တိုင်",
          "latitude": 16.8622,
          "longitude": 96.1965,
          "landmark": "South Okkalapa",
          "landmarkEn": "South Okkalapa",
          "landmarkMm": "တောင်ဥက္ကလာပ",
          "isTerminal": false,
          "sequence": 7,
          "routes": [
            "ybs-6",
            "ybs-9",
            "ybs-69"
          ]
        },
        {
          "id": "stop-thingangyun-sanpya",
          "nameEn": "Thingangyun Sanpya Stop",
          "nameMm": "သင်္ဃန်းကျွန်း Sanpya မှတ်တိုင်",
          "latitude": 16.861,
          "longitude": 96.19,
          "landmark": "Thingangyun Sanpya",
          "landmarkEn": "Thingangyun Sanpya",
          "landmarkMm": "သင်္ဃန်းကျွန်း Sanpya",
          "isTerminal": false,
          "sequence": 8,
          "routes": [
            "ybs-9"
          ]
        },
        {
          "id": "stop-yankin-market",
          "nameEn": "Yankin Market",
          "nameMm": "ရန်ကင်း ဈေး",
          "latitude": 16.835,
          "longitude": 96.175,
          "landmark": "Yankin Market",
          "landmarkEn": "Yankin Market",
          "landmarkMm": "ရန်ကင်း ဈေး",
          "isTerminal": false,
          "sequence": 9,
          "routes": [
            "ybs-9",
            "ybs-38",
            "ybs-69"
          ]
        },
        {
          "id": "stop-tamwe-junction",
          "nameEn": "Tamwe Junction",
          "nameMm": "တာမွေ လမ်းဆုံ",
          "latitude": 16.829,
          "longitude": 96.183,
          "landmark": "Tamwe Junction",
          "landmarkEn": "Tamwe Junction",
          "landmarkMm": "တာမွေ လမ်းဆုံ",
          "isTerminal": false,
          "sequence": 10,
          "routes": [
            "ybs-9",
            "ybs-38",
            "ybs-65",
            "ybs-69"
          ]
        },
        {
          "id": "stop-maha-bandoola-park",
          "nameEn": "Maha Bandoola Park",
          "nameMm": "မဟာဗန္ဓုလ ပန်းခြံ",
          "latitude": 16.7802,
          "longitude": 96.16,
          "landmark": "Maha Bandoola Park",
          "landmarkEn": "Maha Bandoola Park",
          "landmarkMm": "မဟာဗန္ဓုလ ပန်းခြံ",
          "isTerminal": false,
          "sequence": 11,
          "routes": [
            "ybs-1",
            "ybs-9",
            "ybs-38",
            "ybs-46",
            "ybs-65"
          ]
        }
      ],
      "schedule": {
        "forward": {
          "departureTimes": [
            "05:30",
            "05:50",
            "06:10",
            "06:30",
            "06:50"
          ]
        },
        "return": {
          "departureTimes": [
            "05:45",
            "06:05",
            "06:25",
            "06:45",
            "07:05"
          ]
        }
      },
      "routePath": [
        [
          16.8197,
          96.1972
        ],
        [
          16.8014,
          96.1901
        ],
        [
          16.8122,
          96.1734
        ],
        [
          16.7801,
          96.1553
        ],
        [
          16.7791,
          96.1528
        ]
      ],
      "dataConfidence": "estimated"
      ]
    },
    {
      "id": "ybs-10",
      "routeNumber": "YBS-10",
      "nameEn": "Bahan to Tharrmwe",
      "nameMm": "ဗဟန်း - တာမွေ / ဗဟန်း မှ တာမွေ",
      "startStopEn": "Bahan",
      "startStopMm": "ဗဟန်း",
      "endStopEn": "Tharrmwe",
      "endStopMm": "တာမွေ",
      "farePrice": 300,
      "isAirCon": false,
      "color": "#00695C",
      "routeType": "regular",
      "operatingHours": {
        "firstBus": "05:30",
        "lastBus": "21:00"
      },
      "frequency": "every 20-30 min",
      "stops": [
        {
          "id": "stop-bahan",
          "nameEn": "Bahan",
          "nameMm": "ဗဟန်း",
          "latitude": 16.8169,
          "longitude": 96.1534,
          "landmark": "Bahan",
          "isTerminal": true,
          "sequence": 1,
          "routes": [
            "ybs-6",
            "ybs-10",
            "ybs-13",
            "ybs-32",
            "ybs-35",
            "ybs-38",
            "ybs-54",
            "ybs-57",
            "ybs-66",
            "ybs-76",
            "ybs-79",
            "ybs-98",
            "ybs-101",
            "ybs-120",
            "ybs-123"
          ],
          "landmarkEn": "Bahan",
          "landmarkMm": "ဗဟန်း"
        },
        {
          "id": "stop-tharrmwe",
          "nameEn": "Tharrmwe",
          "nameMm": "တာမွေ",
          "latitude": 16.7927,
          "longitude": 96.1733,
          "landmark": "Tharrmwe",
          "isTerminal": true,
          "sequence": 2,
          "routes": [
            "ybs-10",
            "ybs-32",
            "ybs-38",
            "ybs-47",
            "ybs-54",
            "ybs-76",
            "ybs-91",
            "ybs-98",
            "ybs-113",
            "ybs-120"
          ],
          "landmarkEn": "Tharrmwe",
          "landmarkMm": "တာမွေ"
        }
      ],
      "schedule": {
        "forward": {
          "departureTimes": [
            "05:30",
            "06:00",
            "06:30"
          ]
        },
        "return": {
          "departureTimes": [
            "05:45",
            "06:15",
            "06:45"
          ]
        }
      },
      "routePath": [
        [
          16.8169,
          96.1534
        ],
        [
          16.7927,
          96.1733
        ]
      ],
      "dataQuality": "terminal_only",
      "dataConfidence": "terminalOnly"
      "dataQuality": "terminal_only"
    },
    {
      "id": "ybs-11",
      "routeNumber": "YBS-11",
      "nameEn": "South Okkalapa - Downtown",
      "nameMm": "တောင်ဥက္ကလာပ - မြို့လယ် / တောင်ဥက္ကလာပ မှ မြို့လယ်",
      "startStopEn": "South Okkalapa",
      "startStopMm": "တောင်ဥက္ကလာပ",
      "endStopEn": "Downtown",
      "endStopMm": "မြို့လယ်",
      "farePrice": 300,
      "isAirCon": false,
      "color": "#0D47A1",
      "routeType": "regular",
      "operatingHours": {
        "firstBus": "05:30",
        "lastBus": "21:00"
      },
      "frequency": "every 15-20 min",
      "stops": [
        {
          "id": "stop-south-okkalapa",
          "nameEn": "South Okkalapa",
          "nameMm": "တောင်ဥက္ကလာပ",
          "latitude": 16.8401,
          "longitude": 96.1848,
          "landmark": "South Okkalapa",
          "isTerminal": true,
          "sequence": 1,
          "routes": [
            "ybs-11",
            "ybs-18",
            "ybs-29",
            "ybs-62",
            "ybs-69",
            "ybs-73",
            "ybs-84",
            "ybs-95",
            "ybs-102",
            "ybs-117",
            "ybs-128"
          ],
          "landmarkEn": "South Okkalapa",
          "landmarkMm": "တောင်ဥက္ကလာပ"
        },